{
"type": "FeatureCollection",
"name": "cities",
"crs": { "type": "name", "properties": { "name": "urn:ogc:def:crs:OGC:1.3:CRS84" } },
"features": [
{ "type": "Feature", "properties": { "NAME": "Murmansk", "COUNTRY": "Russia", "POPULATION": 468000, "is capital": "N", "UID": 1 }, "geometry": { "type": "Point", "coordinates": [ 33.086040496826172, 68.963546752929688 ] } },
{ "type": "Feature", "properties": { "NAME": "Arkhangelsk", "COUNTRY": "Russia", "POPULATION": 416000, "is capital": "N", "UID": 2 }, "geometry": { "type": "Point", "coordinates": [ 40.646160125732422, 64.520668029785156 ] } },
{ "type": "Feature", "properties": { "NAME": "Saint Petersburg", "COUNTRY": "Russia", "POPULATION": 5825000, "is capital": "N", "UID": 3 }, "geometry": { "type": "Point", "coordinates": [ 30.453327178955078, 59.951889038085938 ] } },
{ "type": "Feature", "properties": { "NAME": "Magadan", "COUNTRY": "Russia", "POPULATION": 152000, "is capital": "N", "UID": 4 }, "geometry": { "type": "Point", "coordinates": [ 150.780014038085938, 59.570999145507812 ] } },
{ "type": "Feature", "properties": { "NAME": "Perm'", "COUNTRY": "Russia", "POPULATION": 1160000, "is capital": "N", "UID": 5 }, "geometry": { "type": "Point", "coordinates": [ 56.232463836669922, 58.000236511230469 ] } },
{ "type": "Feature", "properties": { "NAME": "Yekaterinburg", "COUNTRY": "Russia", "POPULATION": 1620000, "is capital": "N", "UID": 6 }, "geometry": { "type": "Point", "coordinates": [ 60.610130310058594, 56.846542358398438 ] } },
{ "type": "Feature", "properties": { "NAME": "Nizhniy Novgorod", "COUNTRY": "Russia", "POPULATION": 2025000, "is capital": "N", "UID": 7 }, "geometry": { "type": "Point", "coordinates": [ 43.940670013427734, 56.289676666259766 ] } },
{ "type": "Feature", "properties": { "NAME": "Glasgow", "COUNTRY": "UK", "POPULATION": 1800000, "is capital": "N", "UID": 8 }, "geometry": { "type": "Point", "coordinates": [ -4.269947528839111, 55.862808227539062 ] } },
{ "type": "Feature", "properties": { "NAME": "Kazan'", "COUNTRY": "Russia", "POPULATION": 1140000, "is capital": "N", "UID": 9 }, "geometry": { "type": "Point", "coordinates": [ 49.145465850830078, 55.733005523681641 ] } },
{ "type": "Feature", "properties": { "NAME": "Chelyabinsk", "COUNTRY": "Russia", "POPULATION": 1325000, "is capital": "N", "UID": 10 }, "geometry": { "type": "Point", "coordinates": [ 61.392616271972656, 55.145000457763672 ] } },
{ "type": "Feature", "properties": { "NAME": "Omsk", "COUNTRY": "Russia", "POPULATION": 1175000, "is capital": "N", "UID": 11 }, "geometry": { "type": "Point", "coordinates": [ 73.250289916992188, 55.063304901123047 ] } },
{ "type": "Feature", "properties": { "NAME": "Novosibirsk", "COUNTRY": "Russia", "POPULATION": 1600000, "is capital": "N", "UID": 12 }, "geometry": { "type": "Point", "coordinates": [ 82.942848205566406, 55.032100677490234 ] } },
{ "type": "Feature", "properties": { "NAME": "Ufa", "COUNTRY": "Russia", "POPULATION": 1100000, "is capital": "N", "UID": 13 }, "geometry": { "type": "Point", "coordinates": [ 56.096126556396484, 54.821735382080078 ] } },
{ "type": "Feature", "properties": { "NAME": "Vilnius", "COUNTRY": "Lithuania", "POPULATION": 582000, "is capital": "Y", "UID": 14 }, "geometry": { "type": "Point", "coordinates": [ 25.275966644287109, 54.688568115234375 ] } },
{ "type": "Feature", "properties": { "NAME": "Belfast", "COUNTRY": "UK", "POPULATION": 685000, "is capital": "N", "UID": 15 }, "geometry": { "type": "Point", "coordinates": [ -5.909660339355469, 54.586925506591797 ] } },
{ "type": "Feature", "properties": { "NAME": "Gdansk", "COUNTRY": "Poland", "POPULATION": 909000, "is capital": "N", "UID": 16 }, "geometry": { "type": "Point", "coordinates": [ 18.624942779541016, 54.366203308105469 ] } },
{ "type": "Feature", "properties": { "NAME": "Minsk", "COUNTRY": "Byelarus", "POPULATION": 1650000, "is capital": "Y", "UID": 17 }, "geometry": { "type": "Point", "coordinates": [ 27.575567245483398, 53.899936676025391 ] } },
{ "type": "Feature", "properties": { "NAME": "Leeds", "COUNTRY": "UK", "POPULATION": 1540000, "is capital": "N", "UID": 18 }, "geometry": { "type": "Point", "coordinates": [ -1.497527480125427, 53.808712005615234 ] } },
{ "type": "Feature", "properties": { "NAME": "Hamburg", "COUNTRY": "Germany", "POPULATION": 2225000, "is capital": "N", "UID": 19 }, "geometry": { "type": "Point", "coordinates": [ 10.027606010437012, 53.571121215820312 ] } },
{ "type": "Feature", "properties": { "NAME": "Manchester", "COUNTRY": "UK", "POPULATION": 2775000, "is capital": "N", "UID": 20 }, "geometry": { "type": "Point", "coordinates": [ -2.261778593063354, 53.479663848876953 ] } },
{ "type": "Feature", "properties": { "NAME": "Sheffield", "COUNTRY": "UK", "POPULATION": 710000, "is capital": "N", "UID": 21 }, "geometry": { "type": "Point", "coordinates": [ -1.462989211082458, 53.374042510986328 ] } },
{ "type": "Feature", "properties": { "NAME": "Dublin", "COUNTRY": "Ireland", "POPULATION": 1140000, "is capital": "Y", "UID": 22 }, "geometry": { "type": "Point", "coordinates": [ -6.257346630096436, 53.341560363769531 ] } },
{ "type": "Feature", "properties": { "NAME": "Samara", "COUNTRY": "Russia", "POPULATION": 1505000, "is capital": "N", "UID": 23 }, "geometry": { "type": "Point", "coordinates": [ 50.096179962158203, 53.138595581054688 ] } },
{ "type": "Feature", "properties": { "NAME": "Bremen", "COUNTRY": "Germany", "POPULATION": 800000, "is capital": "N", "UID": 24 }, "geometry": { "type": "Point", "coordinates": [ 8.857625961303711, 53.080104827880859 ] } },
{ "type": "Feature", "properties": { "NAME": "Berlin", "COUNTRY": "Germany", "POPULATION": 5061248, "is capital": "Y", "UID": 25 }, "geometry": { "type": "Point", "coordinates": [ 13.327572822570801, 52.516273498535156 ] } },
{ "type": "Feature", "properties": { "NAME": "Birmingham", "COUNTRY": "UK", "POPULATION": 2675000, "is capital": "N", "UID": 26 }, "geometry": { "type": "Point", "coordinates": [ -1.863347768783569, 52.492752075195312 ] } },
{ "type": "Feature", "properties": { "NAME": "Amsterdam", "COUNTRY": "Netherlands", "POPULATION": 1860000, "is capital": "Y", "UID": 27 }, "geometry": { "type": "Point", "coordinates": [ 4.894833087921143, 52.373043060302734 ] } },
{ "type": "Feature", "properties": { "NAME": "Irkutsk", "COUNTRY": "Russia", "POPULATION": 626000, "is capital": "N", "UID": 28 }, "geometry": { "type": "Point", "coordinates": [ 104.247833251953125, 52.317432403564453 ] } },
{ "type": "Feature", "properties": { "NAME": "Warsaw", "COUNTRY": "Poland", "POPULATION": 2323000, "is capital": "Y", "UID": 29 }, "geometry": { "type": "Point", "coordinates": [ 21.011878967285156, 52.244945526123047 ] } },
{ "type": "Feature", "properties": { "NAME": "Rotterdam", "COUNTRY": "Netherlands", "POPULATION": 1110000, "is capital": "N", "UID": 30 }, "geometry": { "type": "Point", "coordinates": [ 4.485152244567871, 51.925594329833984 ] } },
{ "type": "Feature", "properties": { "NAME": "Lodz", "COUNTRY": "Poland", "POPULATION": 1061000, "is capital": "N", "UID": 31 }, "geometry": { "type": "Point", "coordinates": [ 19.4764404296875, 51.777908325195312 ] } },
{ "type": "Feature", "properties": { "NAME": "Dortmund", "COUNTRY": "Germany", "POPULATION": 568164, "is capital": "N", "UID": 32 }, "geometry": { "type": "Point", "coordinates": [ 7.466417789459229, 51.513813018798828 ] } },
{ "type": "Feature", "properties": { "NAME": "Duisburg", "COUNTRY": "Germany", "POPULATION": 514628, "is capital": "N", "UID": 33 }, "geometry": { "type": "Point", "coordinates": [ 6.775304317474365, 51.489337921142578 ] } },
{ "type": "Feature", "properties": { "NAME": "London", "COUNTRY": "UK", "POPULATION": 11100000, "is capital": "Y", "UID": 34 }, "geometry": { "type": "Point", "coordinates": [ -0.177998125553131, 51.487911224365234 ] } },
{ "type": "Feature", "properties": { "NAME": "Essen", "COUNTRY": "Germany", "POPULATION": 3867000, "is capital": "N", "UID": 35 }, "geometry": { "type": "Point", "coordinates": [ 7.122435092926025, 51.354042053222656 ] } },
{ "type": "Feature", "properties": { "NAME": "Leipzig", "COUNTRY": "Germany", "POPULATION": 700000, "is capital": "N", "UID": 36 }, "geometry": { "type": "Point", "coordinates": [ 12.398074150085449, 51.349330902099609 ] } },
{ "type": "Feature", "properties": { "NAME": "Antwerpen", "COUNTRY": "Belgium", "POPULATION": 1100000, "is capital": "N", "UID": 37 }, "geometry": { "type": "Point", "coordinates": [ 4.42605447769165, 51.207347869873047 ] } },
{ "type": "Feature", "properties": { "NAME": "Wroclaw", "COUNTRY": "Poland", "POPULATION": 640200, "is capital": "N", "UID": 38 }, "geometry": { "type": "Point", "coordinates": [ 17.038127899169922, 51.121818542480469 ] } },
{ "type": "Feature", "properties": { "NAME": "Gent", "COUNTRY": "Belgium", "POPULATION": 465000, "is capital": "N", "UID": 39 }, "geometry": { "type": "Point", "coordinates": [ 3.736291170120239, 51.047554016113281 ] } },
{ "type": "Feature", "properties": { "NAME": "Dresden", "COUNTRY": "Germany", "POPULATION": 670000, "is capital": "N", "UID": 40 }, "geometry": { "type": "Point", "coordinates": [ 13.705357551574707, 51.045680999755859 ] } },
{ "type": "Feature", "properties": { "NAME": "Calgary", "COUNTRY": "Canada", "POPULATION": 671326, "is capital": "N", "UID": 41 }, "geometry": { "type": "Point", "coordinates": [ -114.050003051757812, 51.029998779296875 ] } },
{ "type": "Feature", "properties": { "NAME": "Koln", "COUNTRY": "Germany", "POPULATION": 1760000, "is capital": "N", "UID": 42 }, "geometry": { "type": "Point", "coordinates": [ 6.934871673583984, 50.942344665527344 ] } },
{ "type": "Feature", "properties": { "NAME": "Bruxelles", "COUNTRY": "Belgium", "POPULATION": 2385000, "is capital": "Y", "UID": 43 }, "geometry": { "type": "Point", "coordinates": [ 4.367612361907959, 50.837047576904297 ] } },
{ "type": "Feature", "properties": { "NAME": "Bonn", "COUNTRY": "Germany", "POPULATION": 570000, "is capital": "N", "UID": 44 }, "geometry": { "type": "Point", "coordinates": [ 7.099818706512451, 50.73455810546875 ] } },
{ "type": "Feature", "properties": { "NAME": "Lille", "COUNTRY": "France", "POPULATION": 1020000, "is capital": "N", "UID": 45 }, "geometry": { "type": "Point", "coordinates": [ 3.062901258468628, 50.632083892822266 ] } },
{ "type": "Feature", "properties": { "NAME": "Liege", "COUNTRY": "Belgium", "POPULATION": 750000, "is capital": "N", "UID": 46 }, "geometry": { "type": "Point", "coordinates": [ 5.569435596466064, 50.622528076171875 ] } },
{ "type": "Feature", "properties": { "NAME": "Kiev", "COUNTRY": "Ukraine", "POPULATION": 2900000, "is capital": "Y", "UID": 47 }, "geometry": { "type": "Point", "coordinates": [ 30.502111434936523, 50.448158264160156 ] } },
{ "type": "Feature", "properties": { "NAME": "Frankfurt am Main", "COUNTRY": "Germany", "POPULATION": 1855000, "is capital": "N", "UID": 48 }, "geometry": { "type": "Point", "coordinates": [ 8.668167114257812, 50.129997253417969 ] } },
{ "type": "Feature", "properties": { "NAME": "Praha", "COUNTRY": "Czech Repub", "POPULATION": 1325000, "is capital": "Y", "UID": 49 }, "geometry": { "type": "Point", "coordinates": [ 14.456521034240723, 50.10589599609375 ] } },
{ "type": "Feature", "properties": { "NAME": "Krakow", "COUNTRY": "Poland", "POPULATION": 828000, "is capital": "N", "UID": 50 }, "geometry": { "type": "Point", "coordinates": [ 19.945056915283203, 50.062240600585938 ] } },
{ "type": "Feature", "properties": { "NAME": "Winnipeg", "COUNTRY": "Canada", "POPULATION": 625304, "is capital": "N", "UID": 51 }, "geometry": { "type": "Point", "coordinates": [ -97.124443054199219, 49.921169281005859 ] } },
{ "type": "Feature", "properties": { "NAME": "Karaganda", "COUNTRY": "Kazakhstan", "POPULATION": 614000, "is capital": "N", "UID": 52 }, "geometry": { "type": "Point", "coordinates": [ 73.20263671875, 49.879207611083984 ] } },
{ "type": "Feature", "properties": { "NAME": "Lvov", "COUNTRY": "Ukraine", "POPULATION": 790000, "is capital": "N", "UID": 53 }, "geometry": { "type": "Point", "coordinates": [ 24.034521102905273, 49.837310791015625 ] } },
{ "type": "Feature", "properties": { "NAME": "Brno", "COUNTRY": "Czech Repub", "POPULATION": 450000, "is capital": "N", "UID": 54 }, "geometry": { "type": "Point", "coordinates": [ 16.616245269775391, 49.202980041503906 ] } },
{ "type": "Feature", "properties": { "NAME": "Paris", "COUNTRY": "France", "POPULATION": 9775000, "is capital": "Y", "UID": 55 }, "geometry": { "type": "Point", "coordinates": [ 2.432832717895508, 48.881553649902344 ] } },
{ "type": "Feature", "properties": { "NAME": "Volgograd", "COUNTRY": "Russia", "POPULATION": 1360000, "is capital": "N", "UID": 56 }, "geometry": { "type": "Point", "coordinates": [ 44.483631134033203, 48.710247039794922 ] } },
{ "type": "Feature", "properties": { "NAME": "Strasbourg", "COUNTRY": "France", "POPULATION": 400000, "is capital": "N", "UID": 57 }, "geometry": { "type": "Point", "coordinates": [ 7.767994403839111, 48.58343505859375 ] } },
{ "type": "Feature", "properties": { "NAME": "Linz", "COUNTRY": "Austria", "POPULATION": 335000, "is capital": "N", "UID": 58 }, "geometry": { "type": "Point", "coordinates": [ 14.293901443481445, 48.297595977783203 ] } },
{ "type": "Feature", "properties": { "NAME": "Vienna", "COUNTRY": "Austria", "POPULATION": 1875000, "is capital": "Y", "UID": 59 }, "geometry": { "type": "Point", "coordinates": [ 16.320985794067383, 48.202117919921875 ] } },
{ "type": "Feature", "properties": { "NAME": "Munchen", "COUNTRY": "Germany", "POPULATION": 1955000, "is capital": "N", "UID": 60 }, "geometry": { "type": "Point", "coordinates": [ 11.542953491210938, 48.140975952148438 ] } },
{ "type": "Feature", "properties": { "NAME": "Donets'k", "COUNTRY": "Ukraine", "POPULATION": 2200000, "is capital": "N", "UID": 61 }, "geometry": { "type": "Point", "coordinates": [ 37.737052917480469, 48.040145874023438 ] } },
{ "type": "Feature", "properties": { "NAME": "Ulaanbaatar", "COUNTRY": "Mongolia", "POPULATION": 548400, "is capital": "Y", "UID": 62 }, "geometry": { "type": "Point", "coordinates": [ 106.912353515625, 47.928596496582031 ] } },
{ "type": "Feature", "properties": { "NAME": "Budapest", "COUNTRY": "Hungary", "POPULATION": 2565000, "is capital": "Y", "UID": 63 }, "geometry": { "type": "Point", "coordinates": [ 19.094249725341797, 47.514625549316406 ] } },
{ "type": "Feature", "properties": { "NAME": "Qiqihar", "COUNTRY": "China", "POPULATION": 1150000, "is capital": "N", "UID": 64 }, "geometry": { "type": "Point", "coordinates": [ 123.9649658203125, 47.344005584716797 ] } },
{ "type": "Feature", "properties": { "NAME": "Innsbruck", "COUNTRY": "Austria", "POPULATION": 185000, "is capital": "N", "UID": 65 }, "geometry": { "type": "Point", "coordinates": [ 11.349982261657715, 47.265460968017578 ] } },
{ "type": "Feature", "properties": { "NAME": "Rostov-na-Donu", "COUNTRY": "Russia", "POPULATION": 1165000, "is capital": "N", "UID": 66 }, "geometry": { "type": "Point", "coordinates": [ 39.688037872314453, 47.232097625732422 ] } },
{ "type": "Feature", "properties": { "NAME": "Nantes", "COUNTRY": "France", "POPULATION": 464857, "is capital": "N", "UID": 67 }, "geometry": { "type": "Point", "coordinates": [ -1.561561226844788, 47.219432830810547 ] } },
{ "type": "Feature", "properties": { "NAME": "Graz", "COUNTRY": "Austria", "POPULATION": 325000, "is capital": "N", "UID": 68 }, "geometry": { "type": "Point", "coordinates": [ 15.43110179901123, 47.064922332763672 ] } },
{ "type": "Feature", "properties": { "NAME": "Bern", "COUNTRY": "Switzerland", "POPULATION": 298800, "is capital": "Y", "UID": 69 }, "geometry": { "type": "Point", "coordinates": [ 7.445735931396484, 46.948207855224609 ] } },
{ "type": "Feature", "properties": { "NAME": "Quebec", "COUNTRY": "Canada", "POPULATION": 603267, "is capital": "N", "UID": 70 }, "geometry": { "type": "Point", "coordinates": [ -71.24493408203125, 46.802074432373047 ] } },
{ "type": "Feature", "properties": { "NAME": "Odessa", "COUNTRY": "Ukraine", "POPULATION": 1185000, "is capital": "N", "UID": 71 }, "geometry": { "type": "Point", "coordinates": [ 30.683938980102539, 46.572200775146484 ] } },
{ "type": "Feature", "properties": { "NAME": "Harbin", "COUNTRY": "China", "POPULATION": 2670000, "is capital": "N", "UID": 72 }, "geometry": { "type": "Point", "coordinates": [ 126.622634887695312, 45.755218505859375 ] } },
{ "type": "Feature", "properties": { "NAME": "Lyon", "COUNTRY": "France", "POPULATION": 1275000, "is capital": "N", "UID": 73 }, "geometry": { "type": "Point", "coordinates": [ 4.855400562286377, 45.747081756591797 ] } },
{ "type": "Feature", "properties": { "NAME": "Montreal", "COUNTRY": "Canada", "POPULATION": 2921357, "is capital": "N", "UID": 74 }, "geometry": { "type": "Point", "coordinates": [ -73.653533935546875, 45.541015625 ] } },
{ "type": "Feature", "properties": { "NAME": "Milano", "COUNTRY": "Italy", "POPULATION": 3750000, "is capital": "N", "UID": 75 }, "geometry": { "type": "Point", "coordinates": [ 9.190464019775391, 45.473381042480469 ] } },
{ "type": "Feature", "properties": { "NAME": "Venezia", "COUNTRY": "Italy", "POPULATION": 420000, "is capital": "N", "UID": 76 }, "geometry": { "type": "Point", "coordinates": [ 12.370719909667969, 45.424774169921875 ] } },
{ "type": "Feature", "properties": { "NAME": "Ottawa", "COUNTRY": "Canada", "POPULATION": 819263, "is capital": "Y", "UID": 77 }, "geometry": { "type": "Point", "coordinates": [ -75.650749206542969, 45.374217987060547 ] } },
{ "type": "Feature", "properties": { "NAME": "Torino", "COUNTRY": "Italy", "POPULATION": 1550000, "is capital": "N", "UID": 78 }, "geometry": { "type": "Point", "coordinates": [ 7.666426181793213, 45.074874877929688 ] } },
{ "type": "Feature", "properties": { "NAME": "Minneapolis", "COUNTRY": "US", "POPULATION": 2012400, "is capital": "N", "UID": 79 }, "geometry": { "type": "Point", "coordinates": [ -93.307792663574219, 44.924186706542969 ] } },
{ "type": "Feature", "properties": { "NAME": "Bordeaux", "COUNTRY": "France", "POPULATION": 640012, "is capital": "N", "UID": 80 }, "geometry": { "type": "Point", "coordinates": [ -0.599498748779297, 44.841472625732422 ] } },
{ "type": "Feature", "properties": { "NAME": "Beograd", "COUNTRY": "Serbia", "POPULATION": 1400000, "is capital": "Y", "UID": 81 }, "geometry": { "type": "Point", "coordinates": [ 20.412555694580078, 44.7996826171875 ] } },
{ "type": "Feature", "properties": { "NAME": "Bucuresti", "COUNTRY": "Romania", "POPULATION": 2250000, "is capital": "Y", "UID": 82 }, "geometry": { "type": "Point", "coordinates": [ 26.122976303100586, 44.430484771728516 ] } },
{ "type": "Feature", "properties": { "NAME": "Changchung", "COUNTRY": "China", "POPULATION": 1740000, "is capital": "N", "UID": 83 }, "geometry": { "type": "Point", "coordinates": [ 125.312644958496094, 43.881317138671875 ] } },
{ "type": "Feature", "properties": { "NAME": "Jilin", "COUNTRY": "China", "POPULATION": 1170000, "is capital": "N", "UID": 84 }, "geometry": { "type": "Point", "coordinates": [ 126.567070007324219, 43.850215911865234 ] } },
{ "type": "Feature", "properties": { "NAME": "Urumqi", "COUNTRY": "China", "POPULATION": 1040000, "is capital": "N", "UID": 85 }, "geometry": { "type": "Point", "coordinates": [ 87.586517333984375, 43.782665252685547 ] } },
{ "type": "Feature", "properties": { "NAME": "Firenze", "COUNTRY": "Italy", "POPULATION": 640000, "is capital": "N", "UID": 86 }, "geometry": { "type": "Point", "coordinates": [ 11.207745552062988, 43.781574249267578 ] } },
{ "type": "Feature", "properties": { "NAME": "Toronto", "COUNTRY": "Canada", "POPULATION": 3427168, "is capital": "N", "UID": 87 }, "geometry": { "type": "Point", "coordinates": [ -79.412635803222656, 43.720767974853516 ] } },
{ "type": "Feature", "properties": { "NAME": "Toulouse", "COUNTRY": "France", "POPULATION": 541271, "is capital": "N", "UID": 88 }, "geometry": { "type": "Point", "coordinates": [ 1.43798303604126, 43.599960327148438 ] } },
{ "type": "Feature", "properties": { "NAME": "Bilbao", "COUNTRY": "Spain", "POPULATION": 985000, "is capital": "N", "UID": 89 }, "geometry": { "type": "Point", "coordinates": [ -2.973783254623413, 43.282157897949219 ] } },
{ "type": "Feature", "properties": { "NAME": "Almaty", "COUNTRY": "Kazakhstan", "POPULATION": 1190000, "is capital": "Y", "UID": 90 }, "geometry": { "type": "Point", "coordinates": [ 76.912628173828125, 43.255062103271484 ] } },
{ "type": "Feature", "properties": { "NAME": "Rochester", "COUNTRY": "US", "POPULATION": 816200, "is capital": "N", "UID": 91 }, "geometry": { "type": "Point", "coordinates": [ -77.635612487792969, 43.210464477539062 ] } },
{ "type": "Feature", "properties": { "NAME": "Milwaukee", "COUNTRY": "US", "POPULATION": 1374700, "is capital": "N", "UID": 92 }, "geometry": { "type": "Point", "coordinates": [ -87.990737915039062, 43.067947387695312 ] } },
{ "type": "Feature", "properties": { "NAME": "Sapporo", "COUNTRY": "Japan", "POPULATION": 1900000, "is capital": "N", "UID": 93 }, "geometry": { "type": "Point", "coordinates": [ 141.345474243164062, 43.055252075195312 ] } },
{ "type": "Feature", "properties": { "NAME": "Buffalo", "COUNTRY": "US", "POPULATION": 1483000, "is capital": "N", "UID": 94 }, "geometry": { "type": "Point", "coordinates": [ -78.848434448242188, 42.898662567138672 ] } },
{ "type": "Feature", "properties": { "NAME": "Sofiya", "COUNTRY": "Bulgaria", "POPULATION": 1205000, "is capital": "Y", "UID": 95 }, "geometry": { "type": "Point", "coordinates": [ 23.331871032714844, 42.707263946533203 ] } },
{ "type": "Feature", "properties": { "NAME": "Detroit", "COUNTRY": "US", "POPULATION": 4691900, "is capital": "N", "UID": 96 }, "geometry": { "type": "Point", "coordinates": [ -83.078926086425781, 42.394313812255859 ] } },
{ "type": "Feature", "properties": { "NAME": "Boston", "COUNTRY": "US", "POPULATION": 3971700, "is capital": "N", "UID": 97 }, "geometry": { "type": "Point", "coordinates": [ -71.102584838867188, 42.375297546386719 ] } },
{ "type": "Feature", "properties": { "NAME": "Fushun", "COUNTRY": "China", "POPULATION": 1270000, "is capital": "N", "UID": 98 }, "geometry": { "type": "Point", "coordinates": [ 123.905570983886719, 41.859157562255859 ] } },
{ "type": "Feature", "properties": { "NAME": "Chicago", "COUNTRY": "US", "POPULATION": 7717100, "is capital": "N", "UID": 99 }, "geometry": { "type": "Point", "coordinates": [ -87.641304016113281, 41.826545715332031 ] } },
{ "type": "Feature", "properties": { "NAME": "Shenyang", "COUNTRY": "China", "POPULATION": 3840000, "is capital": "N", "UID": 100 }, "geometry": { "type": "Point", "coordinates": [ 123.383049011230469, 41.802162170410156 ] } },
{ "type": "Feature", "properties": { "NAME": "T'Bilisi", "COUNTRY": "Georgia", "POPULATION": 1460000, "is capital": "Y", "UID": 101 }, "geometry": { "type": "Point", "coordinates": [ 44.783126831054688, 41.721809387207031 ] } },
{ "type": "Feature", "properties": { "NAME": "Zaragoza", "COUNTRY": "Spain", "POPULATION": 575317, "is capital": "N", "UID": 102 }, "geometry": { "type": "Point", "coordinates": [ -0.878205060958862, 41.651264190673828 ] } },
{ "type": "Feature", "properties": { "NAME": "Cleveland", "COUNTRY": "US", "POPULATION": 2218400, "is capital": "N", "UID": 103 }, "geometry": { "type": "Point", "coordinates": [ -81.727508544921875, 41.390716552734375 ] } },
{ "type": "Feature", "properties": { "NAME": "Tirane", "COUNTRY": "Albania", "POPULATION": 210800, "is capital": "Y", "UID": 104 }, "geometry": { "type": "Point", "coordinates": [ 19.831804275512695, 41.331653594970703 ] } },
{ "type": "Feature", "properties": { "NAME": "Anshan", "COUNTRY": "China", "POPULATION": 1300000, "is capital": "N", "UID": 105 }, "geometry": { "type": "Point", "coordinates": [ 122.977012634277344, 41.115245819091797 ] } },
{ "type": "Feature", "properties": { "NAME": "Istanbul", "COUNTRY": "Turkey", "POPULATION": 5750000, "is capital": "N", "UID": 106 }, "geometry": { "type": "Point", "coordinates": [ 29.006069183349609, 41.065956115722656 ] } },
{ "type": "Feature", "properties": { "NAME": "Salt Lake City", "COUNTRY": "US", "POPULATION": 682400, "is capital": "N", "UID": 107 }, "geometry": { "type": "Point", "coordinates": [ -111.892173767089844, 40.693920135498047 ] } },
{ "type": "Feature", "properties": { "NAME": "Pittsburgh", "COUNTRY": "US", "POPULATION": 2218800, "is capital": "N", "UID": 108 }, "geometry": { "type": "Point", "coordinates": [ -79.997085571289062, 40.497203826904297 ] } },
{ "type": "Feature", "properties": { "NAME": "Madrid", "COUNTRY": "Spain", "POPULATION": 4650000, "is capital": "Y", "UID": 109 }, "geometry": { "type": "Point", "coordinates": [ -3.690969228744507, 40.442218780517578 ] } },
{ "type": "Feature", "properties": { "NAME": "Baku", "COUNTRY": "Azerbaijan", "POPULATION": 2020000, "is capital": "Y", "UID": 110 }, "geometry": { "type": "Point", "coordinates": [ 49.816238403320312, 40.324298858642578 ] } },
{ "type": "Feature", "properties": { "NAME": "Yerevan", "COUNTRY": "Armenia", "POPULATION": 1315000, "is capital": "Y", "UID": 111 }, "geometry": { "type": "Point", "coordinates": [ 44.532669067382812, 40.208023071289062 ] } },
{ "type": "Feature", "properties": { "NAME": "Columbus", "COUNTRY": "US", "POPULATION": 963600, "is capital": "N", "UID": 112 }, "geometry": { "type": "Point", "coordinates": [ -82.992706298828125, 40.044643402099609 ] } },
{ "type": "Feature", "properties": { "NAME": "Ankara", "COUNTRY": "Turkey", "POPULATION": 2400000, "is capital": "Y", "UID": 113 }, "geometry": { "type": "Point", "coordinates": [ 32.853271484375, 39.929328918457031 ] } },
{ "type": "Feature", "properties": { "NAME": "Philadelphia", "COUNTRY": "US", "POPULATION": 5208600, "is capital": "N", "UID": 114 }, "geometry": { "type": "Point", "coordinates": [ -75.218223571777344, 39.92755126953125 ] } },
{ "type": "Feature", "properties": { "NAME": "Beijing", "COUNTRY": "China", "POPULATION": 6450000, "is capital": "Y", "UID": 115 }, "geometry": { "type": "Point", "coordinates": [ 116.388038635253906, 39.906192779541016 ] } },
{ "type": "Feature", "properties": { "NAME": "Erzurum", "COUNTRY": "Turkey", "POPULATION": 246053, "is capital": "N", "UID": 116 }, "geometry": { "type": "Point", "coordinates": [ 41.291824340820312, 39.904453277587891 ] } },
{ "type": "Feature", "properties": { "NAME": "Samarkand", "COUNTRY": "Uzbekistan", "POPULATION": 366000, "is capital": "N", "UID": 117 }, "geometry": { "type": "Point", "coordinates": [ 66.947601318359375, 39.657581329345703 ] } },
{ "type": "Feature", "properties": { "NAME": "Tangshan", "COUNTRY": "China", "POPULATION": 1060000, "is capital": "N", "UID": 118 }, "geometry": { "type": "Point", "coordinates": [ 118.180206298828125, 39.615444183349609 ] } },
{ "type": "Feature", "properties": { "NAME": "Valencia", "COUNTRY": "Spain", "POPULATION": 1270000, "is capital": "N", "UID": 119 }, "geometry": { "type": "Point", "coordinates": [ -0.367400944232941, 39.470916748046875 ] } },
{ "type": "Feature", "properties": { "NAME": "Baltimore", "COUNTRY": "US", "POPULATION": 1960400, "is capital": "N", "UID": 120 }, "geometry": { "type": "Point", "coordinates": [ -76.618377685546875, 39.321884155273438 ] } },
{ "type": "Feature", "properties": { "NAME": "Cagliari", "COUNTRY": "Italy", "POPULATION": 305000, "is capital": "N", "UID": 121 }, "geometry": { "type": "Point", "coordinates": [ 9.108909606933594, 39.225143432617188 ] } },
{ "type": "Feature", "properties": { "NAME": "Cincinnati", "COUNTRY": "US", "POPULATION": 1480100, "is capital": "N", "UID": 122 }, "geometry": { "type": "Point", "coordinates": [ -84.477020263671875, 39.14801025390625 ] } },
{ "type": "Feature", "properties": { "NAME": "Tianjin", "COUNTRY": "China", "POPULATION": 4880000, "is capital": "N", "UID": 123 }, "geometry": { "type": "Point", "coordinates": [ 117.185226440429688, 39.128414154052734 ] } },
{ "type": "Feature", "properties": { "NAME": "Pyongyang", "COUNTRY": "Korea D P Rp", "POPULATION": 1600000, "is capital": "Y", "UID": 124 }, "geometry": { "type": "Point", "coordinates": [ 125.757514953613281, 39.028514862060547 ] } },
{ "type": "Feature", "properties": { "NAME": "Kansas City", "COUNTRY": "US", "POPULATION": 1272400, "is capital": "N", "UID": 125 }, "geometry": { "type": "Point", "coordinates": [ -94.626564025878906, 38.994117736816406 ] } },
{ "type": "Feature", "properties": { "NAME": "Washington D.C.", "COUNTRY": "US", "POPULATION": 3221400, "is capital": "Y", "UID": 126 }, "geometry": { "type": "Point", "coordinates": [ -76.953834533691406, 38.890911102294922 ] } },
{ "type": "Feature", "properties": { "NAME": "St. Louis", "COUNTRY": "US", "POPULATION": 2203000, "is capital": "N", "UID": 127 }, "geometry": { "type": "Point", "coordinates": [ -90.34197998046875, 38.638885498046875 ] } },
{ "type": "Feature", "properties": { "NAME": "Sacramento", "COUNTRY": "US", "POPULATION": 866400, "is capital": "N", "UID": 128 }, "geometry": { "type": "Point", "coordinates": [ -121.422706604003906, 38.5670166015625 ] } },
{ "type": "Feature", "properties": { "NAME": "Tabriz", "COUNTRY": "Iran", "POPULATION": 971482, "is capital": "N", "UID": 129 }, "geometry": { "type": "Point", "coordinates": [ 46.290119171142578, 38.080978393554688 ] } },
{ "type": "Feature", "properties": { "NAME": "Shijiazhuang", "COUNTRY": "China", "POPULATION": 1190000, "is capital": "N", "UID": 130 }, "geometry": { "type": "Point", "coordinates": [ 114.559707641601562, 38.077095031738281 ] } },
{ "type": "Feature", "properties": { "NAME": "Ashkhabad", "COUNTRY": "Turkmenistan", "POPULATION": 398000, "is capital": "Y", "UID": 131 }, "geometry": { "type": "Point", "coordinates": [ 58.390132904052734, 37.950420379638672 ] } },
{ "type": "Feature", "properties": { "NAME": "Taiyuan", "COUNTRY": "China", "POPULATION": 1660000, "is capital": "N", "UID": 132 }, "geometry": { "type": "Point", "coordinates": [ 112.551704406738281, 37.893054962158203 ] } },
{ "type": "Feature", "properties": { "NAME": "Seoul", "COUNTRY": "Korea Rep", "POPULATION": 15850000, "is capital": "Y", "UID": 133 }, "geometry": { "type": "Point", "coordinates": [ 126.935256958007812, 37.542350769042969 ] } },
{ "type": "Feature", "properties": { "NAME": "Sevilla", "COUNTRY": "Spain", "POPULATION": 945000, "is capital": "N", "UID": 134 }, "geometry": { "type": "Point", "coordinates": [ -5.970831871032715, 37.372646331787109 ] } },
{ "type": "Feature", "properties": { "NAME": "Adana", "COUNTRY": "Turkey", "POPULATION": 777554, "is capital": "N", "UID": 135 }, "geometry": { "type": "Point", "coordinates": [ 35.324363708496094, 36.999980926513672 ] } },
{ "type": "Feature", "properties": { "NAME": "Norfolk", "COUNTRY": "US", "POPULATION": 795600, "is capital": "N", "UID": 136 }, "geometry": { "type": "Point", "coordinates": [ -76.268569946289062, 36.879291534423828 ] } },
{ "type": "Feature", "properties": { "NAME": "Tunis", "COUNTRY": "Tunisia", "POPULATION": 1225000, "is capital": "Y", "UID": 137 }, "geometry": { "type": "Point", "coordinates": [ 10.165960311889648, 36.818813323974609 ] } },
{ "type": "Feature", "properties": { "NAME": "Zibo", "COUNTRY": "China", "POPULATION": 830000, "is capital": "N", "UID": 138 }, "geometry": { "type": "Point", "coordinates": [ 118.062049865722656, 36.791496276855469 ] } },
{ "type": "Feature", "properties": { "NAME": "Jinan", "COUNTRY": "China", "POPULATION": 1460000, "is capital": "N", "UID": 139 }, "geometry": { "type": "Point", "coordinates": [ 116.967056274414062, 36.655536651611328 ] } },
{ "type": "Feature", "properties": { "NAME": "Mosul", "COUNTRY": "Iraq", "POPULATION": 570926, "is capital": "N", "UID": 140 }, "geometry": { "type": "Point", "coordinates": [ 43.137126922607422, 36.335567474365234 ] } },
{ "type": "Feature", "properties": { "NAME": "Mashhad", "COUNTRY": "Iran", "POPULATION": 1463508, "is capital": "N", "UID": 141 }, "geometry": { "type": "Point", "coordinates": [ 59.596851348876953, 36.290069580078125 ] } },
{ "type": "Feature", "properties": { "NAME": "Aleppo", "COUNTRY": "Syria", "POPULATION": 1216000, "is capital": "N", "UID": 142 }, "geometry": { "type": "Point", "coordinates": [ 37.159282684326172, 36.215545654296875 ] } },
{ "type": "Feature", "properties": { "NAME": "Lanzhou", "COUNTRY": "China", "POPULATION": 1270000, "is capital": "N", "UID": 143 }, "geometry": { "type": "Point", "coordinates": [ 103.599594116210938, 36.113430023193359 ] } },
{ "type": "Feature", "properties": { "NAME": "Taegu", "COUNTRY": "Korea Rep", "POPULATION": 2206000, "is capital": "N", "UID": 144 }, "geometry": { "type": "Point", "coordinates": [ 128.591384887695312, 35.863536834716797 ] } },
{ "type": "Feature", "properties": { "NAME": "Tehran", "COUNTRY": "Iran", "POPULATION": 6400000, "is capital": "Y", "UID": 145 }, "geometry": { "type": "Point", "coordinates": [ 51.447650909423828, 35.77447509765625 ] } },
{ "type": "Feature", "properties": { "NAME": "Tokyo", "COUNTRY": "Japan", "POPULATION": 23620000, "is capital": "Y", "UID": 146 }, "geometry": { "type": "Point", "coordinates": [ 139.809188842773438, 35.683055877685547 ] } },
{ "type": "Feature", "properties": { "NAME": "Kawasaki", "COUNTRY": "Japan", "POPULATION": 1088624, "is capital": "N", "UID": 147 }, "geometry": { "type": "Point", "coordinates": [ 139.727218627929688, 35.504570007324219 ] } },
{ "type": "Feature", "properties": { "NAME": "Oklahoma City", "COUNTRY": "US", "POPULATION": 742000, "is capital": "N", "UID": 148 }, "geometry": { "type": "Point", "coordinates": [ -97.530296325683594, 35.489589691162109 ] } },
{ "type": "Feature", "properties": { "NAME": "Yokohama", "COUNTRY": "Japan", "POPULATION": 2992926, "is capital": "N", "UID": 149 }, "geometry": { "type": "Point", "coordinates": [ 139.619659423828125, 35.437385559082031 ] } },
{ "type": "Feature", "properties": { "NAME": "Charlotte", "COUNTRY": "US", "POPULATION": 479200, "is capital": "N", "UID": 150 }, "geometry": { "type": "Point", "coordinates": [ -80.835685729980469, 35.205814361572266 ] } },
{ "type": "Feature", "properties": { "NAME": "Pusan", "COUNTRY": "Korea Rep", "POPULATION": 3800000, "is capital": "N", "UID": 151 }, "geometry": { "type": "Point", "coordinates": [ 129.0546875, 35.157867431640625 ] } },
{ "type": "Feature", "properties": { "NAME": "Nagoya", "COUNTRY": "Japan", "POPULATION": 4800000, "is capital": "N", "UID": 152 }, "geometry": { "type": "Point", "coordinates": [ 136.92059326171875, 35.154922485351562 ] } },
{ "type": "Feature", "properties": { "NAME": "Memphis", "COUNTRY": "US", "POPULATION": 852900, "is capital": "N", "UID": 153 }, "geometry": { "type": "Point", "coordinates": [ -90.000328063964844, 35.114727020263672 ] } },
{ "type": "Feature", "properties": { "NAME": "Kyoto", "COUNTRY": "Japan", "POPULATION": 1479218, "is capital": "N", "UID": 154 }, "geometry": { "type": "Point", "coordinates": [ 135.75482177734375, 35.009128570556641 ] } },
{ "type": "Feature", "properties": { "NAME": "Zhengzhou", "COUNTRY": "China", "POPULATION": 1170000, "is capital": "N", "UID": 155 }, "geometry": { "type": "Point", "coordinates": [ 113.641777038574219, 34.757682800292969 ] } },
{ "type": "Feature", "properties": { "NAME": "Homs", "COUNTRY": "Syria", "POPULATION": 431000, "is capital": "N", "UID": 156 }, "geometry": { "type": "Point", "coordinates": [ 36.718173980712891, 34.733875274658203 ] } },
{ "type": "Feature", "properties": { "NAME": "Luoyang", "COUNTRY": "China", "POPULATION": 740000, "is capital": "N", "UID": 157 }, "geometry": { "type": "Point", "coordinates": [ 112.361236572265625, 34.671348571777344 ] } },
{ "type": "Feature", "properties": { "NAME": "Osaka", "COUNTRY": "Japan", "POPULATION": 15040000, "is capital": "N", "UID": 158 }, "geometry": { "type": "Point", "coordinates": [ 135.519119262695312, 34.635528564453125 ] } },
{ "type": "Feature", "properties": { "NAME": "Kabul", "COUNTRY": "Afghanistan", "POPULATION": 1179000, "is capital": "Y", "UID": 159 }, "geometry": { "type": "Point", "coordinates": [ 69.136756896972656, 34.530906677246094 ] } },
{ "type": "Feature", "properties": { "NAME": "Hiroshima", "COUNTRY": "Japan", "POPULATION": 1575000, "is capital": "N", "UID": 160 }, "geometry": { "type": "Point", "coordinates": [ 132.444778442382812, 34.377555847167969 ] } },
{ "type": "Feature", "properties": { "NAME": "Xian", "COUNTRY": "China", "POPULATION": 2050000, "is capital": "N", "UID": 161 }, "geometry": { "type": "Point", "coordinates": [ 108.88336181640625, 34.265697479248047 ] } },
{ "type": "Feature", "properties": { "NAME": "Fes", "COUNTRY": "Morocco", "POPULATION": 535000, "is capital": "N", "UID": 162 }, "geometry": { "type": "Point", "coordinates": [ -4.995547771453857, 34.043567657470703 ] } },
{ "type": "Feature", "properties": { "NAME": "Atlanta", "COUNTRY": "US", "POPULATION": 1962500, "is capital": "N", "UID": 163 }, "geometry": { "type": "Point", "coordinates": [ -84.349227905273438, 33.795700073242188 ] } },
{ "type": "Feature", "properties": { "NAME": "Islamabad", "COUNTRY": "Pakistan", "POPULATION": 204364, "is capital": "Y", "UID": 164 }, "geometry": { "type": "Point", "coordinates": [ 73.060546875, 33.718151092529297 ] } },
{ "type": "Feature", "properties": { "NAME": "Rawalpindi", "COUNTRY": "Pakistan", "POPULATION": 836000, "is capital": "N", "UID": 165 }, "geometry": { "type": "Point", "coordinates": [ 73.043746948242188, 33.605804443359375 ] } },
{ "type": "Feature", "properties": { "NAME": "Damascus", "COUNTRY": "Syria", "POPULATION": 1850000, "is capital": "Y", "UID": 166 }, "geometry": { "type": "Point", "coordinates": [ 36.313453674316406, 33.519302368164062 ] } },
{ "type": "Feature", "properties": { "NAME": "Phoenix", "COUNTRY": "US", "POPULATION": 1482400, "is capital": "N", "UID": 167 }, "geometry": { "type": "Point", "coordinates": [ -112.110260009765625, 33.509021759033203 ] } },
{ "type": "Feature", "properties": { "NAME": "Baghdad", "COUNTRY": "Iraq", "POPULATION": 3841268, "is capital": "Y", "UID": 168 }, "geometry": { "type": "Point", "coordinates": [ 44.397834777832031, 33.334037780761719 ] } },
{ "type": "Feature", "properties": { "NAME": "Dallas", "COUNTRY": "US", "POPULATION": 2727300, "is capital": "N", "UID": 169 }, "geometry": { "type": "Point", "coordinates": [ -96.663688659667969, 32.763729095458984 ] } },
{ "type": "Feature", "properties": { "NAME": "Esfahan", "COUNTRY": "Iran", "POPULATION": 986753, "is capital": "N", "UID": 170 }, "geometry": { "type": "Point", "coordinates": [ 51.679187774658203, 32.651390075683594 ] } },
{ "type": "Feature", "properties": { "NAME": "Nanjing", "COUNTRY": "China", "POPULATION": 2290000, "is capital": "N", "UID": 171 }, "geometry": { "type": "Point", "coordinates": [ 118.768905639648438, 32.048366546630859 ] } },
{ "type": "Feature", "properties": { "NAME": "Amman", "COUNTRY": "Jordan", "POPULATION": 1250000, "is capital": "Y", "UID": 172 }, "geometry": { "type": "Point", "coordinates": [ 35.932907104492188, 31.949380874633789 ] } },
{ "type": "Feature", "properties": { "NAME": "Amritsar", "COUNTRY": "India", "POPULATION": 594844, "is capital": "N", "UID": 173 }, "geometry": { "type": "Point", "coordinates": [ 74.871551513671875, 31.630889892578125 ] } },
{ "type": "Feature", "properties": { "NAME": "Lahore", "COUNTRY": "Pakistan", "POPULATION": 3025000, "is capital": "N", "UID": 174 }, "geometry": { "type": "Point", "coordinates": [ 74.340675354003906, 31.545055389404297 ] } },
{ "type": "Feature", "properties": { "NAME": "Faisalabad", "COUNTRY": "Pakistan", "POPULATION": 1104209, "is capital": "N", "UID": 175 }, "geometry": { "type": "Point", "coordinates": [ 73.083457946777344, 31.40894889831543 ] } },
{ "type": "Feature", "properties": { "NAME": "Shanghai", "COUNTRY": "China", "POPULATION": 9300000, "is capital": "N", "UID": 176 }, "geometry": { "type": "Point", "coordinates": [ 121.472663879394531, 31.247869491577148 ] } },
{ "type": "Feature", "properties": { "NAME": "Chengdu", "COUNTRY": "China", "POPULATION": 1810000, "is capital": "N", "UID": 177 }, "geometry": { "type": "Point", "coordinates": [ 104.071273803710938, 30.670070648193359 ] } },
{ "type": "Feature", "properties": { "NAME": "Wuhan", "COUNTRY": "China", "POPULATION": 3490000, "is capital": "N", "UID": 178 }, "geometry": { "type": "Point", "coordinates": [ 114.279220581054688, 30.57249641418457 ] } },
{ "type": "Feature", "properties": { "NAME": "Al Basra", "COUNTRY": "Iraq", "POPULATION": 616700, "is capital": "N", "UID": 179 }, "geometry": { "type": "Point", "coordinates": [ 47.7608642578125, 30.50349235534668 ] } },
{ "type": "Feature", "properties": { "NAME": "Hangzhou", "COUNTRY": "China", "POPULATION": 1270000, "is capital": "N", "UID": 180 }, "geometry": { "type": "Point", "coordinates": [ 120.165077209472656, 30.252626419067383 ] } },
{ "type": "Feature", "properties": { "NAME": "Cairo", "COUNTRY": "Egypt", "POPULATION": 9300000, "is capital": "Y", "UID": 181 }, "geometry": { "type": "Point", "coordinates": [ 31.250795364379883, 30.077913284301758 ] } },
{ "type": "Feature", "properties": { "NAME": "New Orleans", "COUNTRY": "US", "POPULATION": 1185000, "is capital": "N", "UID": 182 }, "geometry": { "type": "Point", "coordinates": [ -90.098686218261719, 29.956378936767578 ] } },
{ "type": "Feature", "properties": { "NAME": "Houston", "COUNTRY": "US", "POPULATION": 2755100, "is capital": "N", "UID": 183 }, "geometry": { "type": "Point", "coordinates": [ -95.407112121582031, 29.771827697753906 ] } },
{ "type": "Feature", "properties": { "NAME": "Lhasa", "COUNTRY": "China", "POPULATION": 84400, "is capital": "N", "UID": 184 }, "geometry": { "type": "Point", "coordinates": [ 91.132087707519531, 29.650705337524414 ] } },
{ "type": "Feature", "properties": { "NAME": "Chongqing", "COUNTRY": "China", "POPULATION": 2450000, "is capital": "N", "UID": 185 }, "geometry": { "type": "Point", "coordinates": [ 106.522689819335938, 29.544103622436523 ] } },
{ "type": "Feature", "properties": { "NAME": "San Antonio", "COUNTRY": "US", "POPULATION": 968200, "is capital": "N", "UID": 186 }, "geometry": { "type": "Point", "coordinates": [ -98.524574279785156, 29.429922103881836 ] } },
{ "type": "Feature", "properties": { "NAME": "Nanchang", "COUNTRY": "China", "POPULATION": 1030000, "is capital": "N", "UID": 187 }, "geometry": { "type": "Point", "coordinates": [ 115.889419555664062, 28.671237945556641 ] } },
{ "type": "Feature", "properties": { "NAME": "New Delhi", "COUNTRY": "India", "POPULATION": 273036, "is capital": "Y", "UID": 188 }, "geometry": { "type": "Point", "coordinates": [ 77.216751098632812, 28.5687255859375 ] } },
{ "type": "Feature", "properties": { "NAME": "Delhi", "COUNTRY": "India", "POPULATION": 7200000, "is capital": "N", "UID": 189 }, "geometry": { "type": "Point", "coordinates": [ 77.224372863769531, 28.526458740234375 ] } },
{ "type": "Feature", "properties": { "NAME": "Changsha", "COUNTRY": "China", "POPULATION": 1190000, "is capital": "N", "UID": 190 }, "geometry": { "type": "Point", "coordinates": [ 112.968482971191406, 28.197641372680664 ] } },
{ "type": "Feature", "properties": { "NAME": "Kathmandu", "COUNTRY": "Nepal", "POPULATION": 320000, "is capital": "Y", "UID": 191 }, "geometry": { "type": "Point", "coordinates": [ 85.312950134277344, 27.712017059326172 ] } },
{ "type": "Feature", "properties": { "NAME": "Thimbu", "COUNTRY": "Bhutan", "POPULATION": 12000, "is capital": "Y", "UID": 192 }, "geometry": { "type": "Point", "coordinates": [ 89.667327880859375, 27.442605972290039 ] } },
{ "type": "Feature", "properties": { "NAME": "Jaipur", "COUNTRY": "India", "POPULATION": 1025000, "is capital": "N", "UID": 193 }, "geometry": { "type": "Point", "coordinates": [ 75.801277160644531, 26.905113220214844 ] } },
{ "type": "Feature", "properties": { "NAME": "Lucknow", "COUNTRY": "India", "POPULATION": 1060000, "is capital": "N", "UID": 194 }, "geometry": { "type": "Point", "coordinates": [ 80.919723510742188, 26.849428176879883 ] } },
{ "type": "Feature", "properties": { "NAME": "Guiyang", "COUNTRY": "China", "POPULATION": 1010000, "is capital": "N", "UID": 195 }, "geometry": { "type": "Point", "coordinates": [ 106.700302124023438, 26.571941375732422 ] } },
{ "type": "Feature", "properties": { "NAME": "Kanpur", "COUNTRY": "India", "POPULATION": 1875000, "is capital": "N", "UID": 196 }, "geometry": { "type": "Point", "coordinates": [ 80.317863464355469, 26.457830429077148 ] } },
{ "type": "Feature", "properties": { "NAME": "Fuzhou", "COUNTRY": "China", "POPULATION": 890000, "is capital": "N", "UID": 197 }, "geometry": { "type": "Point", "coordinates": [ 119.303512573242188, 26.071016311645508 ] } },
{ "type": "Feature", "properties": { "NAME": "Miami", "COUNTRY": "US", "POPULATION": 2827300, "is capital": "N", "UID": 198 }, "geometry": { "type": "Point", "coordinates": [ -80.270217895507812, 25.832130432128906 ] } },
{ "type": "Feature", "properties": { "NAME": "Monterrey", "COUNTRY": "Mexico", "POPULATION": 2015000, "is capital": "N", "UID": 199 }, "geometry": { "type": "Point", "coordinates": [ -100.317085266113281, 25.677352905273438 ] } },
{ "type": "Feature", "properties": { "NAME": "Patna", "COUNTRY": "India", "POPULATION": 1025000, "is capital": "N", "UID": 200 }, "geometry": { "type": "Point", "coordinates": [ 85.135345458984375, 25.613897323608398 ] } },
{ "type": "Feature", "properties": { "NAME": "Hyderabad", "COUNTRY": "Pakistan", "POPULATION": 800000, "is capital": "N", "UID": 201 }, "geometry": { "type": "Point", "coordinates": [ 68.366470336914062, 25.380186080932617 ] } },
{ "type": "Feature", "properties": { "NAME": "Benares", "COUNTRY": "India", "POPULATION": 925000, "is capital": "N", "UID": 202 }, "geometry": { "type": "Point", "coordinates": [ 82.956336975097656, 25.282011032104492 ] } },
{ "type": "Feature", "properties": { "NAME": "Doha", "COUNTRY": "Qatar", "POPULATION": 310000, "is capital": "Y", "UID": 203 }, "geometry": { "type": "Point", "coordinates": [ 51.497234344482422, 25.203641891479492 ] } },
{ "type": "Feature", "properties": { "NAME": "Kunming", "COUNTRY": "China", "POPULATION": 1280000, "is capital": "N", "UID": 204 }, "geometry": { "type": "Point", "coordinates": [ 102.702125549316406, 25.051033020019531 ] } },
{ "type": "Feature", "properties": { "NAME": "Taipei", "COUNTRY": "Taiwan", "POPULATION": 6130000, "is capital": "Y", "UID": 205 }, "geometry": { "type": "Point", "coordinates": [ 121.506729125976562, 25.035091400146484 ] } },
{ "type": "Feature", "properties": { "NAME": "T`ai-chung", "COUNTRY": "Taiwan", "POPULATION": 715107, "is capital": "N", "UID": 206 }, "geometry": { "type": "Point", "coordinates": [ 120.670280456542969, 24.143642425537109 ] } },
{ "type": "Feature", "properties": { "NAME": "Dhaka", "COUNTRY": "Bangladesh", "POPULATION": 3430312, "is capital": "Y", "UID": 207 }, "geometry": { "type": "Point", "coordinates": [ 90.407142639160156, 23.709918975830078 ] } },
{ "type": "Feature", "properties": { "NAME": "Guangzhou", "COUNTRY": "China", "POPULATION": 3050000, "is capital": "N", "UID": 208 }, "geometry": { "type": "Point", "coordinates": [ 113.293609619140625, 23.096195220947266 ] } },
{ "type": "Feature", "properties": { "NAME": "Ahmadabad", "COUNTRY": "India", "POPULATION": 2400000, "is capital": "N", "UID": 209 }, "geometry": { "type": "Point", "coordinates": [ 72.566864013671875, 23.039791107177734 ] } },
{ "type": "Feature", "properties": { "NAME": "Khulna", "COUNTRY": "Bangladesh", "POPULATION": 648359, "is capital": "N", "UID": 210 }, "geometry": { "type": "Point", "coordinates": [ 89.558242797851562, 22.842647552490234 ] } },
{ "type": "Feature", "properties": { "NAME": "Calcutta", "COUNTRY": "India", "POPULATION": 11100000, "is capital": "N", "UID": 211 }, "geometry": { "type": "Point", "coordinates": [ 88.334220886230469, 22.543537139892578 ] } },
{ "type": "Feature", "properties": { "NAME": "Tampico", "COUNTRY": "Mexico", "POPULATION": 435000, "is capital": "N", "UID": 212 }, "geometry": { "type": "Point", "coordinates": [ -97.842628479003906, 22.243234634399414 ] } },
{ "type": "Feature", "properties": { "NAME": "Mandalay", "COUNTRY": "Burma", "POPULATION": 532895, "is capital": "N", "UID": 213 }, "geometry": { "type": "Point", "coordinates": [ 96.084152221679688, 21.975944519042969 ] } },
{ "type": "Feature", "properties": { "NAME": "Mecca", "COUNTRY": "Saudi Arabia", "POPULATION": 550000, "is capital": "N", "UID": 214 }, "geometry": { "type": "Point", "coordinates": [ 39.814838409423828, 21.42738151550293 ] } },
{ "type": "Feature", "properties": { "NAME": "Nagpur", "COUNTRY": "India", "POPULATION": 1302066, "is capital": "N", "UID": 215 }, "geometry": { "type": "Point", "coordinates": [ 79.089111328125, 21.155757904052734 ] } },
{ "type": "Feature", "properties": { "NAME": "Hanoi", "COUNTRY": "Vietnam", "POPULATION": 1500000, "is capital": "Y", "UID": 216 }, "geometry": { "type": "Point", "coordinates": [ 105.819908142089844, 21.031948089599609 ] } },
{ "type": "Feature", "properties": { "NAME": "Haiphong", "COUNTRY": "Vietnam", "POPULATION": 385210, "is capital": "N", "UID": 217 }, "geometry": { "type": "Point", "coordinates": [ 106.679794311523438, 20.861358642578125 ] } },
{ "type": "Feature", "properties": { "NAME": "Merida", "COUNTRY": "Mexico", "POPULATION": 400142, "is capital": "N", "UID": 218 }, "geometry": { "type": "Point", "coordinates": [ -89.552864074707031, 20.821868896484375 ] } },
{ "type": "Feature", "properties": { "NAME": "Guadalajara", "COUNTRY": "Mexico", "POPULATION": 2325000, "is capital": "N", "UID": 219 }, "geometry": { "type": "Point", "coordinates": [ -103.343795776367188, 20.673591613769531 ] } },
{ "type": "Feature", "properties": { "NAME": "Bur Sudan", "COUNTRY": "Sudan", "POPULATION": 206727, "is capital": "N", "UID": 220 }, "geometry": { "type": "Point", "coordinates": [ 37.219688415527344, 19.615713119506836 ] } },
{ "type": "Feature", "properties": { "NAME": "Mexico City", "COUNTRY": "Mexico", "POPULATION": 14100000, "is capital": "Y", "UID": 221 }, "geometry": { "type": "Point", "coordinates": [ -99.127571105957031, 19.427045822143555 ] } },
{ "type": "Feature", "properties": { "NAME": "Puebla de Zaragoza", "COUNTRY": "Mexico", "POPULATION": 1055000, "is capital": "N", "UID": 222 }, "geometry": { "type": "Point", "coordinates": [ -98.192947387695312, 19.04863166809082 ] } },
{ "type": "Feature", "properties": { "NAME": "Pune", "COUNTRY": "India", "POPULATION": 1775000, "is capital": "N", "UID": 223 }, "geometry": { "type": "Point", "coordinates": [ 73.852272033691406, 18.535747528076172 ] } },
{ "type": "Feature", "properties": { "NAME": "Port-au-Prince", "COUNTRY": "Haiti", "POPULATION": 880000, "is capital": "Y", "UID": 224 }, "geometry": { "type": "Point", "coordinates": [ -72.343109130859375, 18.526617050170898 ] } },
{ "type": "Feature", "properties": { "NAME": "San Juan", "COUNTRY": "Puerto Rico", "POPULATION": 1775260, "is capital": "Y", "UID": 225 }, "geometry": { "type": "Point", "coordinates": [ -66.081756591796875, 18.400615692138672 ] } },
{ "type": "Feature", "properties": { "NAME": "Kingston", "COUNTRY": "Jamaica", "POPULATION": 770000, "is capital": "Y", "UID": 226 }, "geometry": { "type": "Point", "coordinates": [ -76.79730224609375, 18.015712738037109 ] } },
{ "type": "Feature", "properties": { "NAME": "Hyderabad", "COUNTRY": "India", "POPULATION": 2750000, "is capital": "N", "UID": 227 }, "geometry": { "type": "Point", "coordinates": [ 78.485031127929688, 17.394546508789062 ] } },
{ "type": "Feature", "properties": { "NAME": "Rangoon", "COUNTRY": "Burma", "POPULATION": 2800000, "is capital": "Y", "UID": 228 }, "geometry": { "type": "Point", "coordinates": [ 96.124893188476562, 16.872222900390625 ] } },
{ "type": "Feature", "properties": { "NAME": "Sanaa", "COUNTRY": "Yemen", "POPULATION": 427150, "is capital": "Y", "UID": 229 }, "geometry": { "type": "Point", "coordinates": [ 44.209503173828125, 15.361443519592285 ] } },
{ "type": "Feature", "properties": { "NAME": "Guatemala", "COUNTRY": "Guatemala", "POPULATION": 1400000, "is capital": "Y", "UID": 230 }, "geometry": { "type": "Point", "coordinates": [ -90.52490234375, 14.618008613586426 ] } },
{ "type": "Feature", "properties": { "NAME": "Tegucigalpa", "COUNTRY": "Honduras", "POPULATION": 551606, "is capital": "Y", "UID": 231 }, "geometry": { "type": "Point", "coordinates": [ -87.203094482421875, 14.099050521850586 ] } },
{ "type": "Feature", "properties": { "NAME": "Bangkok", "COUNTRY": "Thailand", "POPULATION": 6450000, "is capital": "Y", "UID": 232 }, "geometry": { "type": "Point", "coordinates": [ 100.552665710449219, 13.745571136474609 ] } },
{ "type": "Feature", "properties": { "NAME": "San Salvador", "COUNTRY": "El Salvador", "POPULATION": 920000, "is capital": "Y", "UID": 233 }, "geometry": { "type": "Point", "coordinates": [ -89.200233459472656, 13.701412200927734 ] } },
{ "type": "Feature", "properties": { "NAME": "Niamey", "COUNTRY": "Niger", "POPULATION": 398265, "is capital": "Y", "UID": 234 }, "geometry": { "type": "Point", "coordinates": [ 2.083449840545654, 13.604543685913086 ] } },
{ "type": "Feature", "properties": { "NAME": "Madras", "COUNTRY": "India", "POPULATION": 4475000, "is capital": "N", "UID": 235 }, "geometry": { "type": "Point", "coordinates": [ 80.247825622558594, 13.061503410339355 ] } },
{ "type": "Feature", "properties": { "NAME": "Bangalore", "COUNTRY": "India", "POPULATION": 2950000, "is capital": "N", "UID": 236 }, "geometry": { "type": "Point", "coordinates": [ 77.587730407714844, 12.974750518798828 ] } },
{ "type": "Feature", "properties": { "NAME": "Bamako", "COUNTRY": "Mali", "POPULATION": 646163, "is capital": "Y", "UID": 237 }, "geometry": { "type": "Point", "coordinates": [ -7.986481189727783, 12.652950286865234 ] } },
{ "type": "Feature", "properties": { "NAME": "Managua", "COUNTRY": "Nicaragua", "POPULATION": 682000, "is capital": "Y", "UID": 238 }, "geometry": { "type": "Point", "coordinates": [ -86.273033142089844, 12.151473045349121 ] } },
{ "type": "Feature", "properties": { "NAME": "Phnom Penh", "COUNTRY": "Cambodia", "POPULATION": 700000, "is capital": "Y", "UID": 239 }, "geometry": { "type": "Point", "coordinates": [ 104.913192749023438, 11.564736366271973 ] } },
{ "type": "Feature", "properties": { "NAME": "Ho Chi Minh City", "COUNTRY": "Vietnam", "POPULATION": 3100000, "is capital": "N", "UID": 240 }, "geometry": { "type": "Point", "coordinates": [ 106.662452697753906, 10.759181976318359 ] } },
{ "type": "Feature", "properties": { "NAME": "Maracaibo", "COUNTRY": "Venezuela", "POPULATION": 890643, "is capital": "N", "UID": 241 }, "geometry": { "type": "Point", "coordinates": [ -71.63714599609375, 10.64504337310791 ] } },
{ "type": "Feature", "properties": { "NAME": "Caracas", "COUNTRY": "Venezuela", "POPULATION": 3600000, "is capital": "Y", "UID": 242 }, "geometry": { "type": "Point", "coordinates": [ -66.898284912109375, 10.496048927307129 ] } },
{ "type": "Feature", "properties": { "NAME": "Barquisimeto", "COUNTRY": "Venezuela", "POPULATION": 497635, "is capital": "N", "UID": 243 }, "geometry": { "type": "Point", "coordinates": [ -69.339195251464844, 10.065665245056152 ] } },
{ "type": "Feature", "properties": { "NAME": "San Jose", "COUNTRY": "Costa Rica", "POPULATION": 670000, "is capital": "Y", "UID": 244 }, "geometry": { "type": "Point", "coordinates": [ -84.07861328125, 9.930476188659668 ] } },
{ "type": "Feature", "properties": { "NAME": "Madurai", "COUNTRY": "India", "POPULATION": 960000, "is capital": "N", "UID": 245 }, "geometry": { "type": "Point", "coordinates": [ 78.121726989746094, 9.913986206054688 ] } },
{ "type": "Feature", "properties": { "NAME": "Ibadan", "COUNTRY": "Nigeria", "POPULATION": 1144000, "is capital": "N", "UID": 246 }, "geometry": { "type": "Point", "coordinates": [ 3.895278692245483, 7.378840446472168 ] } },
{ "type": "Feature", "properties": { "NAME": "Davao", "COUNTRY": "Philippines", "POPULATION": 408775, "is capital": "N", "UID": 247 }, "geometry": { "type": "Point", "coordinates": [ 125.613677978515625, 7.080080032348633 ] } },
{ "type": "Feature", "properties": { "NAME": "Enugu", "COUNTRY": "Nigeria", "POPULATION": 252500, "is capital": "N", "UID": 248 }, "geometry": { "type": "Point", "coordinates": [ 7.492080688476562, 6.450538635253906 ] } },
{ "type": "Feature", "properties": { "NAME": "Medellin", "COUNTRY": "Colombia", "POPULATION": 2095000, "is capital": "N", "UID": 249 }, "geometry": { "type": "Point", "coordinates": [ -75.592033386230469, 6.241146564483643 ] } },
{ "type": "Feature", "properties": { "NAME": "Accra", "COUNTRY": "Ghana", "POPULATION": 1250000, "is capital": "Y", "UID": 250 }, "geometry": { "type": "Point", "coordinates": [ -0.200923636555672, 5.558562755584717 ] } },
{ "type": "Feature", "properties": { "NAME": "Abidjan", "COUNTRY": "Ivory Coast", "POPULATION": 1950000, "is capital": "Y", "UID": 251 }, "geometry": { "type": "Point", "coordinates": [ -4.021886825561523, 5.324857234954834 ] } },
{ "type": "Feature", "properties": { "NAME": "Bogota", "COUNTRY": "Colombia", "POPULATION": 4260000, "is capital": "Y", "UID": 252 }, "geometry": { "type": "Point", "coordinates": [ -74.080513000488281, 4.63021993637085 ] } },
{ "type": "Feature", "properties": { "NAME": "Bangui", "COUNTRY": "Cent Af Rep", "POPULATION": 473817, "is capital": "Y", "UID": 253 }, "geometry": { "type": "Point", "coordinates": [ 18.562341690063477, 4.365856170654297 ] } },
{ "type": "Feature", "properties": { "NAME": "Yaounde", "COUNTRY": "Cameroon", "POPULATION": 653670, "is capital": "Y", "UID": 254 }, "geometry": { "type": "Point", "coordinates": [ 11.513641357421875, 3.86512303352356 ] } },
{ "type": "Feature", "properties": { "NAME": "Medan", "COUNTRY": "Indonesia", "POPULATION": 1373747, "is capital": "N", "UID": 255 }, "geometry": { "type": "Point", "coordinates": [ 98.67559814453125, 3.585241794586182 ] } },
{ "type": "Feature", "properties": { "NAME": "Cali", "COUNTRY": "Colombia", "POPULATION": 1400000, "is capital": "N", "UID": 256 }, "geometry": { "type": "Point", "coordinates": [ -76.522438049316406, 3.456855297088623 ] } },
{ "type": "Feature", "properties": { "NAME": "Kuala Lumpur", "COUNTRY": "Malaysia", "POPULATION": 1475000, "is capital": "Y", "UID": 257 }, "geometry": { "type": "Point", "coordinates": [ 101.707672119140625, 3.150210380554199 ] } },
{ "type": "Feature", "properties": { "NAME": "Muqdisho", "COUNTRY": "Somalia", "POPULATION": 600000, "is capital": "Y", "UID": 258 }, "geometry": { "type": "Point", "coordinates": [ 45.344142913818359, 2.04117751121521 ] } },
{ "type": "Feature", "properties": { "NAME": "Kisangani", "COUNTRY": "Zaire", "POPULATION": 282650, "is capital": "N", "UID": 259 }, "geometry": { "type": "Point", "coordinates": [ 25.196147918701172, 0.519284904003143 ] } },
{ "type": "Feature", "properties": { "NAME": "Quito", "COUNTRY": "Ecuador", "POPULATION": 1050000, "is capital": "Y", "UID": 260 }, "geometry": { "type": "Point", "coordinates": [ -78.524284362792969, -0.229498147964478 ] } },
{ "type": "Feature", "properties": { "NAME": "Iquitos", "COUNTRY": "Peru", "POPULATION": 178738, "is capital": "N", "UID": 261 }, "geometry": { "type": "Point", "coordinates": [ -73.191490173339844, -3.752895355224609 ] } },
{ "type": "Feature", "properties": { "NAME": "Fortaleza", "COUNTRY": "Brazil", "POPULATION": 1825000, "is capital": "N", "UID": 262 }, "geometry": { "type": "Point", "coordinates": [ -38.588901519775391, -3.783322095870972 ] } },
{ "type": "Feature", "properties": { "NAME": "Brazzaville", "COUNTRY": "Congo", "POPULATION": 585812, "is capital": "Y", "UID": 263 }, "geometry": { "type": "Point", "coordinates": [ 15.285148620605469, -4.285186767578125 ] } },
{ "type": "Feature", "properties": { "NAME": "Kananga", "COUNTRY": "Zaire", "POPULATION": 290898, "is capital": "N", "UID": 264 }, "geometry": { "type": "Point", "coordinates": [ 22.402778625488281, -5.892210960388184 ] } },
{ "type": "Feature", "properties": { "NAME": "Dar es Salaam", "COUNTRY": "Tanzania", "POPULATION": 1300000, "is capital": "Y", "UID": 265 }, "geometry": { "type": "Point", "coordinates": [ 39.253349304199219, -6.81735897064209 ] } },
{ "type": "Feature", "properties": { "NAME": "Bandung", "COUNTRY": "Indonesia", "POPULATION": 1800000, "is capital": "N", "UID": 266 }, "geometry": { "type": "Point", "coordinates": [ 107.606903076171875, -6.912430286407471 ] } },
{ "type": "Feature", "properties": { "NAME": "Recife", "COUNTRY": "Brazil", "POPULATION": 2625000, "is capital": "N", "UID": 267 }, "geometry": { "type": "Point", "coordinates": [ -34.914638519287109, -8.08516788482666 ] } },
{ "type": "Feature", "properties": { "NAME": "Benguela", "COUNTRY": "Angola", "POPULATION": 155000, "is capital": "N", "UID": 268 }, "geometry": { "type": "Point", "coordinates": [ 13.464879989624023, -12.717735290527344 ] } },
{ "type": "Feature", "properties": { "NAME": "Brasilia", "COUNTRY": "Brazil", "POPULATION": 1567709, "is capital": "Y", "UID": 269 }, "geometry": { "type": "Point", "coordinates": [ -47.897747039794922, -15.792109489440918 ] } },
{ "type": "Feature", "properties": { "NAME": "Arequipa", "COUNTRY": "Peru", "POPULATION": 446942, "is capital": "N", "UID": 270 }, "geometry": { "type": "Point", "coordinates": [ -71.522743225097656, -16.397539138793945 ] } },
{ "type": "Feature", "properties": { "NAME": "La Paz", "COUNTRY": "Bolivia", "POPULATION": 992592, "is capital": "Y", "UID": 271 }, "geometry": { "type": "Point", "coordinates": [ -68.146247863769531, -16.499006271362305 ] } },
{ "type": "Feature", "properties": { "NAME": "Goiania", "COUNTRY": "Brazil", "POPULATION": 990000, "is capital": "N", "UID": 272 }, "geometry": { "type": "Point", "coordinates": [ -49.254810333251953, -16.726699829101562 ] } },
{ "type": "Feature", "properties": { "NAME": "Santa Cruz de La Sierra", "COUNTRY": "Bolivia", "POPULATION": 441717, "is capital": "N", "UID": 273 }, "geometry": { "type": "Point", "coordinates": [ -63.197418212890625, -17.788791656494141 ] } },
{ "type": "Feature", "properties": { "NAME": "Sucre", "COUNTRY": "Bolivia", "POPULATION": 86609, "is capital": "N", "UID": 274 }, "geometry": { "type": "Point", "coordinates": [ -65.255882263183594, -19.042135238647461 ] } },
{ "type": "Feature", "properties": { "NAME": "Belo Horizonte", "COUNTRY": "Brazil", "POPULATION": 2950000, "is capital": "N", "UID": 275 }, "geometry": { "type": "Point", "coordinates": [ -43.909069061279297, -19.851720809936523 ] } },
{ "type": "Feature", "properties": { "NAME": "Rio de Janeiro", "COUNTRY": "Brazil", "POPULATION": 10150000, "is capital": "N", "UID": 276 }, "geometry": { "type": "Point", "coordinates": [ -43.455177307128906, -22.721572875976562 ] } },
{ "type": "Feature", "properties": { "NAME": "Sao Paulo", "COUNTRY": "Brazil", "POPULATION": 15175000, "is capital": "N", "UID": 277 }, "geometry": { "type": "Point", "coordinates": [ -46.622898101806641, -23.581304550170898 ] } },
{ "type": "Feature", "properties": { "NAME": "Santos", "COUNTRY": "Brazil", "POPULATION": 1065000, "is capital": "N", "UID": 278 }, "geometry": { "type": "Point", "coordinates": [ -46.309494018554688, -23.954700469970703 ] } },
{ "type": "Feature", "properties": { "NAME": "Gaborone", "COUNTRY": "Botswana", "POPULATION": 95163, "is capital": "Y", "UID": 279 }, "geometry": { "type": "Point", "coordinates": [ 25.794801712036133, -24.661441802978516 ] } },
{ "type": "Feature", "properties": { "NAME": "Curitiba", "COUNTRY": "Brazil", "POPULATION": 1700000, "is capital": "N", "UID": 280 }, "geometry": { "type": "Point", "coordinates": [ -49.284507751464844, -25.430479049682617 ] } },
{ "type": "Feature", "properties": { "NAME": "Pretoria", "COUNTRY": "South Africa", "POPULATION": 960000, "is capital": "Y", "UID": 281 }, "geometry": { "type": "Point", "coordinates": [ 28.218372344970703, -25.731346130371094 ] } },
{ "type": "Feature", "properties": { "NAME": "Maputo", "COUNTRY": "Mozambique", "POPULATION": 1069727, "is capital": "Y", "UID": 282 }, "geometry": { "type": "Point", "coordinates": [ 32.573692321777344, -25.962154388427734 ] } },
{ "type": "Feature", "properties": { "NAME": "Johannesburg", "COUNTRY": "South Africa", "POPULATION": 3650000, "is capital": "N", "UID": 283 }, "geometry": { "type": "Point", "coordinates": [ 28.004308700561523, -26.178956985473633 ] } },
{ "type": "Feature", "properties": { "NAME": "Brisbane", "COUNTRY": "Australia", "POPULATION": 1149401, "is capital": "N", "UID": 284 }, "geometry": { "type": "Point", "coordinates": [ 153.0264892578125, -27.453912734985352 ] } },
{ "type": "Feature", "properties": { "NAME": "Durban", "COUNTRY": "South Africa", "POPULATION": 1550000, "is capital": "N", "UID": 285 }, "geometry": { "type": "Point", "coordinates": [ 30.942188262939453, -29.836374282836914 ] } },
{ "type": "Feature", "properties": { "NAME": "Porto Alegre", "COUNTRY": "Brazil", "POPULATION": 2600000, "is capital": "N", "UID": 286 }, "geometry": { "type": "Point", "coordinates": [ -51.207988739013672, -30.039533615112305 ] } },
{ "type": "Feature", "properties": { "NAME": "Cordoba", "COUNTRY": "Argentina", "POPULATION": 1070000, "is capital": "N", "UID": 287 }, "geometry": { "type": "Point", "coordinates": [ -64.179855346679688, -31.316276550292969 ] } },
{ "type": "Feature", "properties": { "NAME": "Santa Fe", "COUNTRY": "Argentina", "POPULATION": 292165, "is capital": "N", "UID": 288 }, "geometry": { "type": "Point", "coordinates": [ -60.697841644287109, -31.616897583007812 ] } },
{ "type": "Feature", "properties": { "NAME": "Mendoza", "COUNTRY": "Argentina", "POPULATION": 650000, "is capital": "N", "UID": 289 }, "geometry": { "type": "Point", "coordinates": [ -68.829734802246094, -32.897438049316406 ] } },
{ "type": "Feature", "properties": { "NAME": "Rosario", "COUNTRY": "Argentina", "POPULATION": 1045000, "is capital": "N", "UID": 290 }, "geometry": { "type": "Point", "coordinates": [ -60.663936614990234, -32.937736511230469 ] } },
{ "type": "Feature", "properties": { "NAME": "Santiago", "COUNTRY": "Chile", "POPULATION": 4100000, "is capital": "Y", "UID": 291 }, "geometry": { "type": "Point", "coordinates": [ -70.647514343261719, -33.475025177001953 ] } },
{ "type": "Feature", "properties": { "NAME": "Port Elizabeth", "COUNTRY": "South Africa", "POPULATION": 690000, "is capital": "N", "UID": 292 }, "geometry": { "type": "Point", "coordinates": [ 25.484298706054688, -33.881576538085938 ] } },
{ "type": "Feature", "properties": { "NAME": "Sydney", "COUNTRY": "Australia", "POPULATION": 3364858, "is capital": "N", "UID": 293 }, "geometry": { "type": "Point", "coordinates": [ 151.0281982421875, -33.889774322509766 ] } },
{ "type": "Feature", "properties": { "NAME": "Buenos Aires", "COUNTRY": "Argentina", "POPULATION": 10750000, "is capital": "Y", "UID": 294 }, "geometry": { "type": "Point", "coordinates": [ -58.409591674804688, -34.665401458740234 ] } },
{ "type": "Feature", "properties": { "NAME": "Canberra", "COUNTRY": "Australia", "POPULATION": 271362, "is capital": "Y", "UID": 295 }, "geometry": { "type": "Point", "coordinates": [ 149.0416259765625, -35.349925994873047 ] } },
{ "type": "Feature", "properties": { "NAME": "Auckland", "COUNTRY": "New Zealand", "POPULATION": 850000, "is capital": "N", "UID": 296 }, "geometry": { "type": "Point", "coordinates": [ 174.801055908203125, -36.893253326416016 ] } },
{ "type": "Feature", "properties": { "NAME": "Melbourne", "COUNTRY": "Australia", "POPULATION": 2832893, "is capital": "N", "UID": 297 }, "geometry": { "type": "Point", "coordinates": [ 145.075103759765625, -37.852958679199219 ] } },
{ "type": "Feature", "properties": { "NAME": "Bahia Blanca", "COUNTRY": "Argentina", "POPULATION": 223818, "is capital": "N", "UID": 298 }, "geometry": { "type": "Point", "coordinates": [ -62.274066925048828, -38.725273132324219 ] } },
{ "type": "Feature", "properties": { "NAME": "Christchurch", "COUNTRY": "New Zealand", "POPULATION": 320000, "is capital": "N", "UID": 299 }, "geometry": { "type": "Point", "coordinates": [ 172.68365478515625, -43.548915863037109 ] } },
{ "type": "Feature", "properties": { "NAME": "Helsinki", "COUNTRY": "Finland", "POPULATION": 900000, "is capital": "Y", "UID": 300 }, "geometry": { "type": "Point", "coordinates": [ 24.976699829101562, 60.196422576904297 ] } },
{ "type": "Feature", "properties": { "NAME": "Sfax", "COUNTRY": "Tunisia", "POPULATION": 310000, "is capital": "N", "UID": 301 }, "geometry": { "type": "Point", "coordinates": [ 10.759258270263672, 34.745231628417969 ] } },
{ "type": "Feature", "properties": { "NAME": "Kobe", "COUNTRY": "Japan", "POPULATION": 1410834, "is capital": "N", "UID": 302 }, "geometry": { "type": "Point", "coordinates": [ 135.181838989257812, 34.663841247558594 ] } },
{ "type": "Feature", "properties": { "NAME": "Jerusalem", "COUNTRY": "Israel", "POPULATION": 490000, "is capital": "N", "UID": 303 }, "geometry": { "type": "Point", "coordinates": [ 35.2252197265625, 31.773746490478516 ] } },
{ "type": "Feature", "properties": { "NAME": "Valencia", "COUNTRY": "Venezuela", "POPULATION": 616224, "is capital": "N", "UID": 304 }, "geometry": { "type": "Point", "coordinates": [ -68.00311279296875, 10.178220748901367 ] } },
{ "type": "Feature", "properties": { "NAME": "Guayaquil", "COUNTRY": "Ecuador", "POPULATION": 1255000, "is capital": "N", "UID": 305 }, "geometry": { "type": "Point", "coordinates": [ -79.909393310546875, -2.203816175460815 ] } },
{ "type": "Feature", "properties": { "NAME": "San Francisco", "COUNTRY": "US", "POPULATION": 4053800, "is capital": "N", "UID": 306 }, "geometry": { "type": "Point", "coordinates": [ -122.308815002441406, 37.727512359619141 ] } },
{ "type": "Feature", "properties": { "NAME": "Edinburgh", "COUNTRY": "UK", "POPULATION": 630000, "is capital": "N", "UID": 307 }, "geometry": { "type": "Point", "coordinates": [ -3.298783302307129, 55.875251770019531 ] } },
{ "type": "Feature", "properties": { "NAME": "Trieste", "COUNTRY": "Italy", "POPULATION": 239031, "is capital": "N", "UID": 308 }, "geometry": { "type": "Point", "coordinates": [ 13.93283748626709, 45.700283050537109 ] } },
{ "type": "Feature", "properties": { "NAME": "Fukuoka", "COUNTRY": "Japan", "POPULATION": 1750000, "is capital": "N", "UID": 309 }, "geometry": { "type": "Point", "coordinates": [ 130.317184448242188, 33.309906005859375 ] } },
{ "type": "Feature", "properties": { "NAME": "Kita Kyushu", "COUNTRY": "Japan", "POPULATION": 1525000, "is capital": "N", "UID": 310 }, "geometry": { "type": "Point", "coordinates": [ 130.797454833984375, 33.681865692138672 ] } },
{ "type": "Feature", "properties": { "NAME": "N'Djamena", "COUNTRY": "Chad", "POPULATION": 303000, "is capital": "Y", "UID": 311 }, "geometry": { "type": "Point", "coordinates": [ 15.240824699401855, 12.10413932800293 ] } },
{ "type": "Feature", "properties": { "NAME": "Tripoli", "COUNTRY": "Libya", "POPULATION": 990697, "is capital": "Y", "UID": 312 }, "geometry": { "type": "Point", "coordinates": [ 13.211822509765625, 32.751617431640625 ] } },
{ "type": "Feature", "properties": { "NAME": "Izmir", "COUNTRY": "Turkey", "POPULATION": 1550000, "is capital": "N", "UID": 313 }, "geometry": { "type": "Point", "coordinates": [ 27.205768585205078, 38.438919067382812 ] } },
{ "type": "Feature", "properties": { "NAME": "Kinshasa", "COUNTRY": "Zaire", "POPULATION": 3000000, "is capital": "Y", "UID": 314 }, "geometry": { "type": "Point", "coordinates": [ 15.469294548034668, -4.388674736022949 ] } },
{ "type": "Feature", "properties": { "NAME": "Adelaide", "COUNTRY": "Australia", "POPULATION": 977721, "is capital": "N", "UID": 315 }, "geometry": { "type": "Point", "coordinates": [ 138.870681762695312, -34.918537139892578 ] } },
{ "type": "Feature", "properties": { "NAME": "Jakarta", "COUNTRY": "Indonesia", "POPULATION": 8600000, "is capital": "Y", "UID": 316 }, "geometry": { "type": "Point", "coordinates": [ 106.762466430664062, -6.293904304504395 ] } },
{ "type": "Feature", "properties": { "NAME": "Semarang", "COUNTRY": "Indonesia", "POPULATION": 1024940, "is capital": "N", "UID": 317 }, "geometry": { "type": "Point", "coordinates": [ 110.444259643554688, -7.027844429016113 ] } },
{ "type": "Feature", "properties": { "NAME": "Callao", "COUNTRY": "Peru", "POPULATION": 264133, "is capital": "N", "UID": 318 }, "geometry": { "type": "Point", "coordinates": [ -76.83563232421875, -12.043540000915527 ] } },
{ "type": "Feature", "properties": { "NAME": "Belem", "COUNTRY": "Brazil", "POPULATION": 1200000, "is capital": "N", "UID": 319 }, "geometry": { "type": "Point", "coordinates": [ -48.316276550292969, -1.605329036712646 ] } },
{ "type": "Feature", "properties": { "NAME": "Qingdao", "COUNTRY": "China", "POPULATION": 1270000, "is capital": "N", "UID": 320 }, "geometry": { "type": "Point", "coordinates": [ 120.434127807617188, 36.148353576660156 ] } },
{ "type": "Feature", "properties": { "NAME": "Vientiane", "COUNTRY": "Laos", "POPULATION": 377409, "is capital": "Y", "UID": 321 }, "geometry": { "type": "Point", "coordinates": [ 102.68023681640625, 18.001731872558594 ] } },
{ "type": "Feature", "properties": { "NAME": "Salzburg", "COUNTRY": "Austria", "POPULATION": 220000, "is capital": "N", "UID": 322 }, "geometry": { "type": "Point", "coordinates": [ 13.090898513793945, 47.801170349121094 ] } },
{ "type": "Feature", "properties": { "NAME": "Zagreb", "COUNTRY": "Croatia", "POPULATION": 697925, "is capital": "Y", "UID": 323 }, "geometry": { "type": "Point", "coordinates": [ 15.964385986328125, 45.807075500488281 ] } },
{ "type": "Feature", "properties": { "NAME": "Bujumbura", "COUNTRY": "Burundi", "POPULATION": 273000, "is capital": "Y", "UID": 324 }, "geometry": { "type": "Point", "coordinates": [ 29.533588409423828, -3.269083738327026 ] } },
{ "type": "Feature", "properties": { "NAME": "Nicosia", "COUNTRY": "Cyprus", "POPULATION": 185000, "is capital": "Y", "UID": 325 }, "geometry": { "type": "Point", "coordinates": [ 33.385162353515625, 35.165069580078125 ] } },
{ "type": "Feature", "properties": { "NAME": "Kigali", "COUNTRY": "Rwanda", "POPULATION": 181600, "is capital": "Y", "UID": 326 }, "geometry": { "type": "Point", "coordinates": [ 29.991487503051758, -2.117935180664062 ] } },
{ "type": "Feature", "properties": { "NAME": "Ljubljana", "COUNTRY": "Slovenia", "POPULATION": 233200, "is capital": "Y", "UID": 327 }, "geometry": { "type": "Point", "coordinates": [ 14.639612197875977, 46.068302154541016 ] } },
{ "type": "Feature", "properties": { "NAME": "Maseru", "COUNTRY": "Lesotho", "POPULATION": 109382, "is capital": "Y", "UID": 328 }, "geometry": { "type": "Point", "coordinates": [ 27.890388488769531, -29.256708145141602 ] } },
{ "type": "Feature", "properties": { "NAME": "Luxembourg", "COUNTRY": "Luxembourg", "POPULATION": 133000, "is capital": "Y", "UID": 329 }, "geometry": { "type": "Point", "coordinates": [ 6.273255825042725, 49.740406036376953 ] } },
{ "type": "Feature", "properties": { "NAME": "The Hague", "COUNTRY": "Netherlands", "POPULATION": 770000, "is capital": "N", "UID": 330 }, "geometry": { "type": "Point", "coordinates": [ 4.300624370574951, 51.903621673583984 ] } },
{ "type": "Feature", "properties": { "NAME": "Bratislava", "COUNTRY": "Slovakia", "POPULATION": 435499, "is capital": "Y", "UID": 331 }, "geometry": { "type": "Point", "coordinates": [ 17.269805908203125, 48.274509429931641 ] } },
{ "type": "Feature", "properties": { "NAME": "Saskatoon", "COUNTRY": "Canada", "POPULATION": 200665, "is capital": "N", "UID": 332 }, "geometry": { "type": "Point", "coordinates": [ -106.629997253417969, 52.110000610351562 ] } },
{ "type": "Feature", "properties": { "NAME": "Regina", "COUNTRY": "Canada", "POPULATION": 186521, "is capital": "N", "UID": 333 }, "geometry": { "type": "Point", "coordinates": [ -104.650001525878906, 50.409999847412109 ] } },
{ "type": "Feature", "properties": { "NAME": "El Paso", "COUNTRY": "US", "POPULATION": 1037700, "is capital": "N", "UID": 334 }, "geometry": { "type": "Point", "coordinates": [ -106.449996948242188, 31.779998779296875 ] } },
{ "type": "Feature", "properties": { "NAME": "Jacksonville", "COUNTRY": "US", "POPULATION": 635900, "is capital": "N", "UID": 335 }, "geometry": { "type": "Point", "coordinates": [ -81.660003662109375, 30.330001831054688 ] } },
{ "type": "Feature", "properties": { "NAME": "Moosonee", "COUNTRY": "Canada", "POPULATION": -99, "is capital": "N", "UID": 336 }, "geometry": { "type": "Point", "coordinates": [ -80.730003356933594, 51.330001831054688 ] } },
{ "type": "Feature", "properties": { "NAME": "Schefferville", "COUNTRY": "Canada", "POPULATION": 1997, "is capital": "N", "UID": 337 }, "geometry": { "type": "Point", "coordinates": [ -67.010002136230469, 54.860000610351562 ] } },
{ "type": "Feature", "properties": { "NAME": "Goose Bay", "COUNTRY": "Canada", "POPULATION": -99, "is capital": "N", "UID": 338 }, "geometry": { "type": "Point", "coordinates": [ -60.549995422363281, 53.310001373291016 ] } },
{ "type": "Feature", "properties": { "NAME": "Porto Velho", "COUNTRY": "Brazil", "POPULATION": 202011, "is capital": "N", "UID": 339 }, "geometry": { "type": "Point", "coordinates": [ -63.899997711181641, -8.75 ] } },
{ "type": "Feature", "properties": { "NAME": "Cuzco", "COUNTRY": "Peru", "POPULATION": 184550, "is capital": "N", "UID": 340 }, "geometry": { "type": "Point", "coordinates": [ -71.860000610351562, -13.600000381469727 ] } },
{ "type": "Feature", "properties": { "NAME": "Cuiaba", "COUNTRY": "Brazil", "POPULATION": 279651, "is capital": "N", "UID": 341 }, "geometry": { "type": "Point", "coordinates": [ -56.049999237060547, -15.549999237060547 ] } },
{ "type": "Feature", "properties": { "NAME": "Resistencia", "COUNTRY": "Argentina", "POPULATION": 220104, "is capital": "N", "UID": 342 }, "geometry": { "type": "Point", "coordinates": [ -58.900001525878906, -27.399999618530273 ] } },
{ "type": "Feature", "properties": { "NAME": "Tombouctoo", "COUNTRY": "Mali", "POPULATION": 31925, "is capital": "N", "UID": 343 }, "geometry": { "type": "Point", "coordinates": [ -3.009999990463257, 16.760000228881836 ] } },
{ "type": "Feature", "properties": { "NAME": "Maiduguri", "COUNTRY": "Niger", "POPULATION": 255100, "is capital": "N", "UID": 344 }, "geometry": { "type": "Point", "coordinates": [ 13.260000228881836, 11.880000114440918 ] } },
{ "type": "Feature", "properties": { "NAME": "Matadi", "COUNTRY": "Zaire", "POPULATION": 144742, "is capital": "N", "UID": 345 }, "geometry": { "type": "Point", "coordinates": [ 13.449999809265137, -5.809999942779541 ] } },
{ "type": "Feature", "properties": { "NAME": "Huambo", "COUNTRY": "Angola", "POPULATION": 203000, "is capital": "N", "UID": 346 }, "geometry": { "type": "Point", "coordinates": [ 15.779999732971191, -12.729999542236328 ] } },
{ "type": "Feature", "properties": { "NAME": "Kimberley", "COUNTRY": "South Africa", "POPULATION": 145000, "is capital": "N", "UID": 347 }, "geometry": { "type": "Point", "coordinates": [ 24.829999923706055, -28.659999847412109 ] } },
{ "type": "Feature", "properties": { "NAME": "East London", "COUNTRY": "South Africa", "POPULATION": 320000, "is capital": "N", "UID": 348 }, "geometry": { "type": "Point", "coordinates": [ 27.899999618530273, -33.029998779296875 ] } },
{ "type": "Feature", "properties": { "NAME": "Kahemba", "COUNTRY": "Zaire", "POPULATION": -99, "is capital": "N", "UID": 349 }, "geometry": { "type": "Point", "coordinates": [ 19.0, -7.330000400543213 ] } },
{ "type": "Feature", "properties": { "NAME": "Dodoma", "COUNTRY": "Tanzania", "POPULATION": 54000, "is capital": "N", "UID": 350 }, "geometry": { "type": "Point", "coordinates": [ 35.75, -6.179999828338623 ] } },
{ "type": "Feature", "properties": { "NAME": "Narvik", "COUNTRY": "Norway", "POPULATION": 19080, "is capital": "N", "UID": 351 }, "geometry": { "type": "Point", "coordinates": [ 17.299999237060547, 68.349998474121094 ] } },
{ "type": "Feature", "properties": { "NAME": "Herat", "COUNTRY": "Afghanistan", "POPULATION": 160000, "is capital": "N", "UID": 352 }, "geometry": { "type": "Point", "coordinates": [ 62.209999084472656, 34.459999084472656 ] } },
{ "type": "Feature", "properties": { "NAME": "Druzba", "COUNTRY": "Russia", "POPULATION": -99, "is capital": "N", "UID": 353 }, "geometry": { "type": "Point", "coordinates": [ 37.75, 55.880001068115234 ] } },
{ "type": "Feature", "properties": { "NAME": "Kashi", "COUNTRY": "China", "POPULATION": 146300, "is capital": "N", "UID": 354 }, "geometry": { "type": "Point", "coordinates": [ 76.0, 39.479999542236328 ] } },
{ "type": "Feature", "properties": { "NAME": "Chingmei", "COUNTRY": "Taiwan", "POPULATION": -99, "is capital": "N", "UID": 355 }, "geometry": { "type": "Point", "coordinates": [ 121.529991149902344, 24.979999542236328 ] } },
{ "type": "Feature", "properties": { "NAME": "Hue", "COUNTRY": "Vietnam", "POPULATION": 165710, "is capital": "N", "UID": 356 }, "geometry": { "type": "Point", "coordinates": [ 107.699996948242188, 16.459999084472656 ] } },
{ "type": "Feature", "properties": { "NAME": "Kuching", "COUNTRY": "Malaysia", "POPULATION": 72555, "is capital": "N", "UID": 357 }, "geometry": { "type": "Point", "coordinates": [ 110.430000305175781, 1.5 ] } },
{ "type": "Feature", "properties": { "NAME": "Balikpapan", "COUNTRY": "Indonesia", "POPULATION": 208040, "is capital": "N", "UID": 358 }, "geometry": { "type": "Point", "coordinates": [ 116.860000610351562, -1.210000038146973 ] } },
{ "type": "Feature", "properties": { "NAME": "Chatanga", "COUNTRY": "Russia", "POPULATION": -99, "is capital": "N", "UID": 359 }, "geometry": { "type": "Point", "coordinates": [ 110.75, 50.330001831054688 ] } },
{ "type": "Feature", "properties": { "NAME": "Chita", "COUNTRY": "Russia", "POPULATION": -99, "is capital": "N", "UID": 360 }, "geometry": { "type": "Point", "coordinates": [ 113.580001831054688, 52.049999237060547 ] } },
{ "type": "Feature", "properties": { "NAME": "Verkhoyvensk", "COUNTRY": "Russia", "POPULATION": -99, "is capital": "N", "UID": 361 }, "geometry": { "type": "Point", "coordinates": [ 133.410003662109375, 67.580001831054688 ] } },
{ "type": "Feature", "properties": { "NAME": "Yakutsk", "COUNTRY": "Russia", "POPULATION": 187000, "is capital": "N", "UID": 362 }, "geometry": { "type": "Point", "coordinates": [ 129.830001831054688, 62.009998321533203 ] } },
{ "type": "Feature", "properties": { "NAME": "Okhotsk", "COUNTRY": "Russia", "POPULATION": -99, "is capital": "N", "UID": 363 }, "geometry": { "type": "Point", "coordinates": [ 143.25, 59.330001831054688 ] } },
{ "type": "Feature", "properties": { "NAME": "Nikolayevsk", "COUNTRY": "Russia", "POPULATION": -99, "is capital": "N", "UID": 364 }, "geometry": { "type": "Point", "coordinates": [ 45.529998779296875, 50.080001831054688 ] } },
{ "type": "Feature", "properties": { "NAME": "Yuzhno-Sakhalinsk", "COUNTRY": "Russia", "POPULATION": -99, "is capital": "N", "UID": 365 }, "geometry": { "type": "Point", "coordinates": [ 142.75, 46.959999084472656 ] } },
{ "type": "Feature", "properties": { "NAME": "Alice Springs", "COUNTRY": "Australia", "POPULATION": -99, "is capital": "N", "UID": 366 }, "geometry": { "type": "Point", "coordinates": [ 133.92999267578125, -23.629999160766602 ] } },
{ "type": "Feature", "properties": { "NAME": "Cairns", "COUNTRY": "Australia", "POPULATION": 39096, "is capital": "N", "UID": 367 }, "geometry": { "type": "Point", "coordinates": [ 145.710006713867188, -16.850000381469727 ] } },
{ "type": "Feature", "properties": { "NAME": "Townsville", "COUNTRY": "Australia", "POPULATION": 106416, "is capital": "N", "UID": 368 }, "geometry": { "type": "Point", "coordinates": [ 146.830001831054688, -19.299999237060547 ] } },
{ "type": "Feature", "properties": { "NAME": "Rockhampton", "COUNTRY": "Australia", "POPULATION": 59056, "is capital": "N", "UID": 369 }, "geometry": { "type": "Point", "coordinates": [ 150.479995727539062, -23.430000305175781 ] } },
{ "type": "Feature", "properties": { "NAME": "Newcastle", "COUNTRY": "Australia", "POPULATION": 405089, "is capital": "N", "UID": 370 }, "geometry": { "type": "Point", "coordinates": [ 151.910003662109375, -33.0 ] } },
{ "type": "Feature", "properties": { "NAME": "Hobart", "COUNTRY": "Australia", "POPULATION": 175082, "is capital": "N", "UID": 371 }, "geometry": { "type": "Point", "coordinates": [ 147.5, -43.0 ] } },
{ "type": "Feature", "properties": { "NAME": "Dunedin", "COUNTRY": "New Zealand", "POPULATION": 109000, "is capital": "N", "UID": 372 }, "geometry": { "type": "Point", "coordinates": [ 170.5, -45.860000610351562 ] } },
{ "type": "Feature", "properties": { "NAME": "Victoria", "COUNTRY": "Canada", "POPULATION": 255547, "is capital": "N", "UID": 373 }, "geometry": { "type": "Point", "coordinates": [ -123.569107055664062, 48.654567718505859 ] } },
{ "type": "Feature", "properties": { "NAME": "Porto Novo", "COUNTRY": "Benin", "POPULATION": 164000, "is capital": "Y", "UID": 374 }, "geometry": { "type": "Point", "coordinates": [ 2.632502794265747, 6.601096153259277 ] } },
{ "type": "Feature", "properties": { "NAME": "Douala", "COUNTRY": "Cameroon", "POPULATION": 1029731, "is capital": "N", "UID": 375 }, "geometry": { "type": "Point", "coordinates": [ 9.706374168395996, 4.136650085449219 ] } },
{ "type": "Feature", "properties": { "NAME": "Vjuag Padang", "COUNTRY": "Indonesia", "POPULATION": 708465, "is capital": "N", "UID": 376 }, "geometry": { "type": "Point", "coordinates": [ 119.722793579101562, -5.190430164337158 ] } },
{ "type": "Feature", "properties": { "NAME": "Ambon", "COUNTRY": "Indonesia", "POPULATION": 111914, "is capital": "N", "UID": 377 }, "geometry": { "type": "Point", "coordinates": [ 129.31292724609375, -3.386553287506104 ] } },
{ "type": "Feature", "properties": { "NAME": "Inch`on", "COUNTRY": "Korea Rep", "POPULATION": 1604000, "is capital": "N", "UID": 378 }, "geometry": { "type": "Point", "coordinates": [ 126.767433166503906, 37.589450836181641 ] } },
{ "type": "Feature", "properties": { "NAME": "Dalian", "COUNTRY": "China", "POPULATION": 1680000, "is capital": "N", "UID": 379 }, "geometry": { "type": "Point", "coordinates": [ 121.598197937011719, 39.031715393066406 ] } },
{ "type": "Feature", "properties": { "NAME": "Portland", "COUNTRY": "US", "POPULATION": 1227200, "is capital": "N", "UID": 380 }, "geometry": { "type": "Point", "coordinates": [ -122.641677856445312, 45.442131042480469 ] } },
{ "type": "Feature", "properties": { "NAME": "Manaus", "COUNTRY": "Brazil", "POPULATION": 809914, "is capital": "N", "UID": 381 }, "geometry": { "type": "Point", "coordinates": [ -60.014617919921875, -3.122304916381836 ] } },
{ "type": "Feature", "properties": { "NAME": "Santarem", "COUNTRY": "Brazil", "POPULATION": 226618, "is capital": "N", "UID": 382 }, "geometry": { "type": "Point", "coordinates": [ -54.610000610351562, -2.460000038146973 ] } },
{ "type": "Feature", "properties": { "NAME": "Invercargill", "COUNTRY": "New Zealand", "POPULATION": 52807, "is capital": "N", "UID": 383 }, "geometry": { "type": "Point", "coordinates": [ 168.449996948242188, -46.409999847412109 ] } },
{ "type": "Feature", "properties": { "NAME": "Mtwara", "COUNTRY": "Tanzania", "POPULATION": 48510, "is capital": "N", "UID": 384 }, "geometry": { "type": "Point", "coordinates": [ 40.180000305175781, -10.260000228881836 ] } },
{ "type": "Feature", "properties": { "NAME": "Toamasina", "COUNTRY": "Madagascar", "POPULATION": 100000, "is capital": "N", "UID": 385 }, "geometry": { "type": "Point", "coordinates": [ 49.409999847412109, -18.229999542236328 ] } },
{ "type": "Feature", "properties": { "NAME": "Bloemfontein", "COUNTRY": "South Africa", "POPULATION": 235000, "is capital": "N", "UID": 386 }, "geometry": { "type": "Point", "coordinates": [ 26.260000228881836, -29.150001525878906 ] } },
{ "type": "Feature", "properties": { "NAME": "Bulawayo", "COUNTRY": "Zimbabwe", "POPULATION": 413814, "is capital": "N", "UID": 387 }, "geometry": { "type": "Point", "coordinates": [ 28.710000991821289, -20.200000762939453 ] } },
{ "type": "Feature", "properties": { "NAME": "Livingstone", "COUNTRY": "Zambia", "POPULATION": 61296, "is capital": "N", "UID": 388 }, "geometry": { "type": "Point", "coordinates": [ 25.879999160766602, -17.829999923706055 ] } },
{ "type": "Feature", "properties": { "NAME": "Al Madinah", "COUNTRY": "Saudi Arabia", "POPULATION": 290000, "is capital": "N", "UID": 389 }, "geometry": { "type": "Point", "coordinates": [ 39.700000762939453, 24.430000305175781 ] } },
{ "type": "Feature", "properties": { "NAME": "Wadi Halfa", "COUNTRY": "Sudan", "POPULATION": -99, "is capital": "N", "UID": 390 }, "geometry": { "type": "Point", "coordinates": [ 31.280002593994141, 21.760000228881836 ] } },
{ "type": "Feature", "properties": { "NAME": "Aswan", "COUNTRY": "Egypt", "POPULATION": 191461, "is capital": "N", "UID": 391 }, "geometry": { "type": "Point", "coordinates": [ 32.950000762939453, 24.079999923706055 ] } },
{ "type": "Feature", "properties": { "NAME": "Murzuq", "COUNTRY": "Libya", "POPULATION": -99, "is capital": "N", "UID": 392 }, "geometry": { "type": "Point", "coordinates": [ 13.909999847412109, 25.909999847412109 ] } },
{ "type": "Feature", "properties": { "NAME": "Tindouf", "COUNTRY": "Algeria", "POPULATION": -99, "is capital": "N", "UID": 393 }, "geometry": { "type": "Point", "coordinates": [ -8.159999847412109, 27.700000762939453 ] } },
{ "type": "Feature", "properties": { "NAME": "Agadez", "COUNTRY": "Niger", "POPULATION": 50164, "is capital": "N", "UID": 394 }, "geometry": { "type": "Point", "coordinates": [ 7.980000495910645, 16.959999084472656 ] } },
{ "type": "Feature", "properties": { "NAME": "El Obeid", "COUNTRY": "Sudan", "POPULATION": 140000, "is capital": "N", "UID": 395 }, "geometry": { "type": "Point", "coordinates": [ 30.160001754760742, 13.180000305175781 ] } },
{ "type": "Feature", "properties": { "NAME": "Mbandaka", "COUNTRY": "Zaire", "POPULATION": 125263, "is capital": "N", "UID": 396 }, "geometry": { "type": "Point", "coordinates": [ 18.459999084472656, 0.050000000745058 ] } },
{ "type": "Feature", "properties": { "NAME": "Whitehorse", "COUNTRY": "Canada", "POPULATION": 15199, "is capital": "N", "UID": 397 }, "geometry": { "type": "Point", "coordinates": [ -135.009994506835938, 60.650005340576172 ] } },
{ "type": "Feature", "properties": { "NAME": "Punte Arenas", "COUNTRY": "Chile", "POPULATION": 95332, "is capital": "N", "UID": 398 }, "geometry": { "type": "Point", "coordinates": [ -70.800003051757812, -53.150001525878906 ] } },
{ "type": "Feature", "properties": { "NAME": "Puerto Montt", "COUNTRY": "Chile", "POPULATION": 84410, "is capital": "N", "UID": 399 }, "geometry": { "type": "Point", "coordinates": [ -73.0, -41.479999542236328 ] } },
{ "type": "Feature", "properties": { "NAME": "Rio Gallegos", "COUNTRY": "Argentina", "POPULATION": -99, "is capital": "N", "UID": 400 }, "geometry": { "type": "Point", "coordinates": [ -69.410003662109375, -51.709999084472656 ] } },
{ "type": "Feature", "properties": { "NAME": "Comodoro Rivadavia", "COUNTRY": "Argentina", "POPULATION": 96817, "is capital": "N", "UID": 401 }, "geometry": { "type": "Point", "coordinates": [ -67.5, -45.830001831054688 ] } },
{ "type": "Feature", "properties": { "NAME": "Suez", "COUNTRY": "Egypt", "POPULATION": 326820, "is capital": "N", "UID": 402 }, "geometry": { "type": "Point", "coordinates": [ 32.560001373291016, 29.959999084472656 ] } },
{ "type": "Feature", "properties": { "NAME": "Alexandria", "COUNTRY": "Egypt", "POPULATION": 3350000, "is capital": "N", "UID": 403 }, "geometry": { "type": "Point", "coordinates": [ 29.977809906005859, 31.074604034423828 ] } },
{ "type": "Feature", "properties": { "NAME": "Mocambique", "COUNTRY": "Mozambique", "POPULATION": -99, "is capital": "N", "UID": 404 }, "geometry": { "type": "Point", "coordinates": [ 40.700000762939453, -15.05000114440918 ] } },
{ "type": "Feature", "properties": { "NAME": "Bombay", "COUNTRY": "India", "POPULATION": 9950000, "is capital": "N", "UID": 405 }, "geometry": { "type": "Point", "coordinates": [ 73.172348022460938, 19.045347213745117 ] } },
{ "type": "Feature", "properties": { "NAME": "Algiers", "COUNTRY": "Algeria", "POPULATION": 2547983, "is capital": "Y", "UID": 406 }, "geometry": { "type": "Point", "coordinates": [ 2.993693113327026, 36.596492767333984 ] } },
{ "type": "Feature", "properties": { "NAME": "Kharkov", "COUNTRY": "Ukraine", "POPULATION": 1940000, "is capital": "N", "UID": 407 }, "geometry": { "type": "Point", "coordinates": [ 36.20831298828125, 49.989673614501953 ] } },
{ "type": "Feature", "properties": { "NAME": "Dnepropetrovsk", "COUNTRY": "Ukraine", "POPULATION": 1600000, "is capital": "N", "UID": 408 }, "geometry": { "type": "Point", "coordinates": [ 35.137893676757812, 48.422889709472656 ] } },
{ "type": "Feature", "properties": { "NAME": "Tallinn", "COUNTRY": "Estonia", "POPULATION": 482000, "is capital": "Y", "UID": 409 }, "geometry": { "type": "Point", "coordinates": [ 24.752056121826172, 59.277572631835938 ] } },
{ "type": "Feature", "properties": { "NAME": "Uliastay", "COUNTRY": "Mongolia", "POPULATION": -99, "is capital": "N", "UID": 410 }, "geometry": { "type": "Point", "coordinates": [ 97.0, 47.810001373291016 ] } },
{ "type": "Feature", "properties": { "NAME": "Santo Domingo", "COUNTRY": "Dominican Rp", "POPULATION": 1313172, "is capital": "Y", "UID": 411 }, "geometry": { "type": "Point", "coordinates": [ -69.910491943359375, 18.499729156494141 ] } },
{ "type": "Feature", "properties": { "NAME": "Bandar Seri Begawan", "COUNTRY": "Brunei", "POPULATION": 64000, "is capital": "Y", "UID": 412 }, "geometry": { "type": "Point", "coordinates": [ 114.967002868652344, 4.933000087738037 ] } },
{ "type": "Feature", "properties": { "NAME": "Banjul", "COUNTRY": "Gambia", "POPULATION": 95000, "is capital": "Y", "UID": 413 }, "geometry": { "type": "Point", "coordinates": [ -16.49461555480957, 13.445272445678711 ] } },
{ "type": "Feature", "properties": { "NAME": "Port of Spain", "COUNTRY": "Trinidad", "POPULATION": 370000, "is capital": "Y", "UID": 414 }, "geometry": { "type": "Point", "coordinates": [ -61.490062713623047, 10.639734268188477 ] } },
{ "type": "Feature", "properties": { "NAME": "Acapulco", "COUNTRY": "Mexico", "POPULATION": 301902, "is capital": "N", "UID": 415 }, "geometry": { "type": "Point", "coordinates": [ -99.931495666503906, 16.974386215209961 ] } },
{ "type": "Feature", "properties": { "NAME": "Anadyr", "COUNTRY": "Russia", "POPULATION": -99, "is capital": "N", "UID": 416 }, "geometry": { "type": "Point", "coordinates": [ 177.13018798828125, 64.400161743164062 ] } },
{ "type": "Feature", "properties": { "NAME": "Angmagssalik", "COUNTRY": "Greenland", "POPULATION": 2618, "is capital": "N", "UID": 417 }, "geometry": { "type": "Point", "coordinates": [ -37.311866760253906, 65.669998168945312 ] } },
{ "type": "Feature", "properties": { "NAME": "Antofagasta", "COUNTRY": "Chile", "POPULATION": 185486, "is capital": "N", "UID": 418 }, "geometry": { "type": "Point", "coordinates": [ -70.225448608398438, -23.832536697387695 ] } },
{ "type": "Feature", "properties": { "NAME": "Aomori", "COUNTRY": "Japan", "POPULATION": 294045, "is capital": "N", "UID": 419 }, "geometry": { "type": "Point", "coordinates": [ 140.669998168945312, 40.75 ] } },
{ "type": "Feature", "properties": { "NAME": "Banghazi", "COUNTRY": "Libya", "POPULATION": 435886, "is capital": "N", "UID": 420 }, "geometry": { "type": "Point", "coordinates": [ 20.308675765991211, 32.043052673339844 ] } },
{ "type": "Feature", "properties": { "NAME": "Birdum", "COUNTRY": "Australia", "POPULATION": -99, "is capital": "N", "UID": 421 }, "geometry": { "type": "Point", "coordinates": [ 133.220001220703125, -15.75 ] } },
{ "type": "Feature", "properties": { "NAME": "Boa Vista", "COUNTRY": "Brazil", "POPULATION": -99, "is capital": "N", "UID": 422 }, "geometry": { "type": "Point", "coordinates": [ -60.5, 2.75 ] } },
{ "type": "Feature", "properties": { "NAME": "Chiclayo", "COUNTRY": "Peru", "POPULATION": 279527, "is capital": "N", "UID": 423 }, "geometry": { "type": "Point", "coordinates": [ -79.830001831054688, -6.619999885559082 ] } },
{ "type": "Feature", "properties": { "NAME": "Chimbote", "COUNTRY": "Peru", "POPULATION": 223341, "is capital": "N", "UID": 424 }, "geometry": { "type": "Point", "coordinates": [ -78.453147888183594, -8.930100440979004 ] } },
{ "type": "Feature", "properties": { "NAME": "Churchill", "COUNTRY": "Canada", "POPULATION": 1304, "is capital": "N", "UID": 425 }, "geometry": { "type": "Point", "coordinates": [ -94.180000305175781, 58.710762023925781 ] } },
{ "type": "Feature", "properties": { "NAME": "Cochin", "COUNTRY": "India", "POPULATION": 685836, "is capital": "N", "UID": 426 }, "geometry": { "type": "Point", "coordinates": [ 76.521781921386719, 9.987988471984863 ] } },
{ "type": "Feature", "properties": { "NAME": "Concepcion", "COUNTRY": "Chile", "POPULATION": 675000, "is capital": "N", "UID": 427 }, "geometry": { "type": "Point", "coordinates": [ -72.851638793945312, -36.883296966552734 ] } },
{ "type": "Feature", "properties": { "NAME": "Coquimbo", "COUNTRY": "Chile", "POPULATION": 62186, "is capital": "N", "UID": 428 }, "geometry": { "type": "Point", "coordinates": [ -71.019996643066406, -30.999998092651367 ] } },
{ "type": "Feature", "properties": { "NAME": "Darwin", "COUNTRY": "Australia", "POPULATION": 72937, "is capital": "N", "UID": 429 }, "geometry": { "type": "Point", "coordinates": [ 130.994552612304688, -12.701499938964844 ] } },
{ "type": "Feature", "properties": { "NAME": "Djibouti", "COUNTRY": "Djibouti", "POPULATION": 120000, "is capital": "Y", "UID": 430 }, "geometry": { "type": "Point", "coordinates": [ 43.099998474121094, 11.5 ] } },
{ "type": "Feature", "properties": { "NAME": "Fremantle", "COUNTRY": "Australia", "POPULATION": 22484, "is capital": "N", "UID": 431 }, "geometry": { "type": "Point", "coordinates": [ 115.934562683105469, -32.044166564941406 ] } },
{ "type": "Feature", "properties": { "NAME": "George Town", "COUNTRY": "Malaysia", "POPULATION": 495000, "is capital": "N", "UID": 432 }, "geometry": { "type": "Point", "coordinates": [ 100.547142028808594, 5.349999904632568 ] } },
{ "type": "Feature", "properties": { "NAME": "Godhavn", "COUNTRY": "Greenland", "POPULATION": 1012, "is capital": "N", "UID": 433 }, "geometry": { "type": "Point", "coordinates": [ -53.630001068115234, 69.383140563964844 ] } },
{ "type": "Feature", "properties": { "NAME": "Godthab", "COUNTRY": "Greenland", "POPULATION": 12426, "is capital": "Y", "UID": 434 }, "geometry": { "type": "Point", "coordinates": [ -51.580001831054688, 64.271186828613281 ] } },
{ "type": "Feature", "properties": { "NAME": "Halifax", "COUNTRY": "Canada", "POPULATION": 295990, "is capital": "N", "UID": 435 }, "geometry": { "type": "Point", "coordinates": [ -63.580005645751953, 44.630001068115234 ] } },
{ "type": "Feature", "properties": { "NAME": "Hammerfest", "COUNTRY": "Norway", "POPULATION": 7208, "is capital": "N", "UID": 436 }, "geometry": { "type": "Point", "coordinates": [ 23.906341552734375, 70.391326904296875 ] } },
{ "type": "Feature", "properties": { "NAME": "Igarka", "COUNTRY": "Russia", "POPULATION": -99, "is capital": "N", "UID": 437 }, "geometry": { "type": "Point", "coordinates": [ 86.550003051757812, 67.349998474121094 ] } },
{ "type": "Feature", "properties": { "NAME": "In Salah", "COUNTRY": "Algeria", "POPULATION": 18800, "is capital": "N", "UID": 438 }, "geometry": { "type": "Point", "coordinates": [ 2.529999971389771, 27.200000762939453 ] } },
{ "type": "Feature", "properties": { "NAME": "Inuvik", "COUNTRY": "Canada", "POPULATION": -99, "is capital": "N", "UID": 439 }, "geometry": { "type": "Point", "coordinates": [ -133.669998168945312, 68.269996643066406 ] } },
{ "type": "Feature", "properties": { "NAME": "Kigoma", "COUNTRY": "Tanzania", "POPULATION": 50044, "is capital": "N", "UID": 440 }, "geometry": { "type": "Point", "coordinates": [ 30.0, -4.949999809265137 ] } },